     3.03           OBSERVATION DATA    M (MIXED)           RINEX VERSION / TYPE
G    4 C1C L1C D1C S1C                                      SYS / # / OBS TYPES 
                                                            END OF HEADER       
> 2020 04 04 10 05 48.0000000  0  9      -0.000000000000
G01  22314383.484 8 117262851.589 8      2685.014          48.000
G08  23579642.083 8 123911823.185 8     -2456.796          48.000
G10  22304577.045 8 117211318.932 8     -1906.365          48.000
G11  21119272.169 8 110982504.290 8        30.315          48.000
G14  20492761.543 8 107690172.966 8      -193.721          48.000
G22  23303936.639 8 122462984.708 8      2417.065          48.000
G27  24730608.421 8 129960183.991 8     -3198.186          48.000
G31  22257688.731 8 116964917.688 8      3153.149          48.000
G32  20752643.377 8 109055859.738 8     -1550.195          48.000
> 2020 04 04 10 05 49.0000000  0  9      -0.000000000000
G01  22313872.578 8 117260166.761 8      2684.623          48.000
G08  23580109.621 8 123914280.113 8     -2457.065          48.000
G10  22304939.833 8 117213225.393 8     -1906.580          48.000
G11  21119266.470 8 110982474.344 8        29.593          48.000
G14  20492798.447 8 107690366.895 8      -194.166          48.000
G22  23303476.689 8 122460567.655 8      2416.997          48.000
G27  24731217.014 8 129963382.162 8     -3198.141          48.000
G31  22257088.736 8 116961764.695 8      3152.823          48.000
G32  20752938.401 8 109057410.096 8     -1550.550          48.000
> 2020 04 04 10 05 50.0000000  0  9      -0.000000000000
G01  22313361.746 8 117257482.325 8      2684.231          48.000
G08  23580577.211 8 123916737.310 8     -2457.334          48.000
G10  22305302.662 8 117215132.069 8     -1906.795          48.000
G11  21119260.909 8 110982445.120 8        28.871          48.000
G14  20492835.435 8 107690561.269 8      -194.611          48.000
G22  23303016.751 8 122458150.670 8      2416.929          48.000
G27  24731825.598 8 129966580.288 8     -3198.095          48.000
G31  22256488.803 8 116958612.029 8      3152.497          48.000
G32  20753233.492 8 109058960.809 8     -1550.906          48.000
> 2020 04 04 10 05 51.0000000  0  9      -0.000000000000
G01  22312850.989 8 117254798.280 8      2683.840          48.000
G08  23581044.852 8 123919194.776 8     -2457.603          48.000
G10  22305665.532 8 117217038.960 8     -1907.010          48.000
G11  21119255.485 8 110982416.617 8        28.149          48.000
G14  20492872.508 8 107690756.088 8      -195.056          48.000
G22  23302556.826 8 122455733.753 8      2416.861          48.000
G27  24732434.174 8 129969778.369 8     -3198.050          48.000
G31  22255888.931 8 116955459.688 8      3152.171          48.000
G32  20753528.651 8 109060511.878 8     -1551.261          48.000
> 2020 04 04 10 05 52.0000000  0  9      -0.000000000000
G01  22312340.306 8 117252114.626 8      2683.449          48.000
G08  23581512.544 8 123921652.511 8     -2457.871          48.000
G10  22306028.443 8 117218946.066 8     -1907.225          48.000
G11  21119250.199 8 110982388.837 8        27.427          48.000
G14  20492909.665 8 107690951.352 8      -195.501          48.000
G22  23302096.915 8 122453316.903 8      2416.793          48.000
G27  24733042.741 8 129972976.405 8     -3198.005          48.000
G31  22255289.122 8 116952307.674 8      3151.844          48.000
G32  20753823.877 8 109062063.303 8     -1551.617          48.000
> 2020 04 04 10 05 53.0000000  0  9      -0.000000000000
G01  22311829.697 8 117249431.364 8      2683.057          48.000
G08  23581980.287 8 123924110.515 8     -2458.140          48.000
G10  22306391.394 8 117220853.387 8     -1907.439          48.000
G11  21119245.050 8 110982361.779 8        26.705          48.000
G14  20492946.907 8 107691147.061 8      -195.946          48.000
G22  23301637.016 8 122450900.122 8      2416.725          48.000
G27  24733651.299 8 129976174.395 8     -3197.960          48.000
G31  22254689.375 8 116949155.986 8      3151.518          48.000
G32  20754119.171 8 109063615.082 8     -1551.972          48.000
> 2020 04 04 10 05 54.0000000  0  9      -0.000000000000
G01  22311319.028 8 117246747.782 8      2684.799          48.000
G08  23582448.052 8 123926568.633 8     -2457.946          48.000
G10  22306754.459 8 117222761.302 8     -1908.793          48.000
G11  21119239.964 8 110982335.054 8        27.147          48.000
G14  20492984.222 8 107691343.149 8      -196.195          48.000
G22  23301176.994 8 122448482.692 8      2418.805          48.000
G27  24734259.905 8 129979372.633 8     -3198.792          48.000
G31  22254089.821 8 116946005.312 8      3149.129          48.000
G32  20754414.519 8 109065167.146 8     -1552.112          48.000
> 2020 04 04 10 05 55.0000000  0  9      -0.000000000000
G01  22310807.621 8 117244060.325 8      2690.808          48.000
G08  23582915.692 8 123929026.095 8     -2456.829          48.000
G10  22307117.998 8 117224671.711 8     -1912.428          48.000
G11  21119234.573 8 110982306.724 8        29.915          48.000
G14  20493021.546 8 107691539.291 8      -196.053          48.000
G22  23300716.167 8 122446061.036 8      2425.179          48.000
G27  24734868.835 8 129982572.580 8     -3201.379          48.000
G31  22253491.114 8 116942859.088 8      3142.618          48.000
G32  20754709.853 8 109066719.133 8     -1551.820          48.000
> 2020 04 04 10 05 56.0000000  0  9      -0.000000000000
G01  22310294.666 8 117241364.727 8      2701.081          48.000
G08  23583383.032 8 123931481.980 8     -2454.791          48.000
G10  22307482.446 8 117226586.895 8     -1918.345          48.000
G11  21119228.434 8 110982274.463 8        35.008          48.000
G14  20493058.806 8 107691735.094 8      -195.518          48.000
G22  23300253.719 8 122443630.857 8      2435.849          48.000
G27  24735478.425 8 129985775.993 8     -3205.724          48.000
G31  22252894.038 8 116939721.436 8      3131.985          48.000
G32  20755005.090 8 109068270.613 8     -1551.098          48.000
> 2020 04 04 10 05 57.0000000  0  9      -0.000000000000
G01  22309779.484 8 117238657.435 8      2713.484          48.000
G08  23583849.926 8 123933935.520 8     -2452.295          48.000
G10  22307848.165 8 117228508.759 8     -1925.406          48.000
G11  21119221.178 8 110982236.335 8        41.260          48.000
G14  20493095.940 8 107691930.230 8      -194.785          48.000
G22  23299788.968 8 122441188.577 8      2448.666          48.000
G27  24736088.954 8 129988984.337 8     -3210.949          48.000
G31  22252299.247 8 116936595.790 8      3119.292          48.000
G32  20755300.162 8 109069821.227 8     -1550.159          48.000
> 2020 04 04 10 05 58.0000000  0  9      -0.000000000000
G01  22309261.943 8 117235937.741 8      2725.884          48.000
G08  23584316.345 8 123936386.566 8     -2449.803          48.000
G10  22308215.228 8 117230437.687 8     -1932.473          48.000
G11  21119212.734 8 110982191.958 8        47.507          48.000
G14  20493132.933 8 107692124.633 8      -194.050          48.000
G22  23299321.778 8 122438733.480 8      2461.482          48.000
G27  24736700.477 8 129992197.908 8     -3216.178          48.000
G31  22251706.871 8 116933482.836 8      3106.602          48.000
G32  20755595.055 8 109071370.901 8     -1549.220          48.000
> 2020 04 04 10 05 59.0000000  0  9      -0.000000000000
G01  22308742.043 8 117233205.649 8      2738.280          48.000
G08  23584782.291 8 123938835.121 8     -2447.315          48.000
G10  22308583.637 8 117232373.685 8     -1939.546          48.000
G11  21119203.101 8 110982141.336 8        53.749          48.000
G14  20493169.787 8 107692318.299 8      -193.313          48.000
G22  23298852.149 8 122436265.568 8      2474.297          48.000
G27  24737312.996 8 129995416.710 8     -3221.410          48.000
G31  22251116.909 8 116930382.572 8      3093.914          48.000
G32  20755889.770 8 109072919.637 8     -1548.281          48.000
> 2020 04 04 10 06  0.0000000  0  9      -0.000000000000
G01  22308219.784 8 117230461.163 8      2750.673          48.000
G08  23585247.763 8 123941281.191 8     -2444.831          48.000
G10  22308953.392 8 117234316.759 8     -1946.624          48.000
G11  21119192.280 8 110982084.476 8        59.986          48.000
G14  20493206.500 8 107692511.227 8      -192.573          48.000
G22  23298380.082 8 122433784.841 8      2487.111          48.000
G27  24737926.510 8 129998640.745 8     -3226.645          48.000
G31  22250529.362 8 116927294.995 8      3081.227          48.000
G32  20756184.306 8 109074467.434 8     -1547.342          48.000
> 2020 04 04 10 06  1.0000000  0  9      -0.000000000000
G01  22307695.167 8 117227704.285 8      2763.062          48.000
G08  23585712.763 8 123943724.780 8     -2442.352          48.000
G10  22309324.494 8 117236266.913 8     -1953.708          48.000
G11  21119180.274 8 110982021.381 8        66.217          48.000
G14  20493243.072 8 107692703.415 8      -191.832          48.000
G22  23297905.576 8 122431291.300 8      2499.925          48.000
G27  24738541.022 8 130001870.018 8     -3231.884          48.000
G31  22249944.229 8 116924220.103 8      3068.543          48.000
G32  20756478.664 8 109076014.291 8     -1546.402          48.000
> 2020 04 04 10 06  2.0000000  0  9      -0.000000000000
G01  22307168.193 8 117224935.020 8      2775.448          48.000
G08  23586177.292 8 123946165.891 8     -2439.877          48.000
G10  22309696.945 8 117238224.154 8     -1960.797          48.000
G11  21119167.082 8 110981952.057 8        72.443          48.000
G14  20493279.503 8 107692894.859 8      -191.088          48.000
G22  23297428.632 8 122428784.946 8      2512.738          48.000
G27  24739156.530 8 130005104.531 8     -3237.126          48.000
G31  22249361.509 8 116921157.894 8      3055.861          48.000
G32  20756772.842 8 109077560.208 8     -1545.462          48.000
> 2020 04 04 10 06  3.0000000  0  9      -0.000000000000
G01  22306638.862 8 117222153.372 8      2787.830          48.000
G08  23586641.350 8 123948604.530 8     -2437.406          48.000
G10  22310070.745 8 117240188.486 8     -1967.892          48.000
G11  21119152.705 8 110981876.509 8        78.664          48.000
G14  20493315.792 8 107693085.559 8      -190.342          48.000
G22  23296949.250 8 122426265.779 8      2525.550          48.000
G27  24739773.036 8 130008344.288 8     -3242.372          48.000
G31  22248781.203 8 116918108.365 8      3043.182          48.000
G32  20757066.842 8 109079105.185 8     -1544.522          48.000
> 2020 04 04 10 06  4.0000000  0  9      -0.000000000000
G01  22306107.175 8 117219359.343 8      2800.208          48.000
G08  23587104.938 8 123951040.699 8     -2434.940          48.000
G10  22310445.897 8 117242159.916 8     -1974.992          48.000
G11  21119137.146 8 110981794.743 8        84.880          48.000
G14  20493351.938 8 107693275.512 8      -189.594          48.000
G22  23296467.430 8 122423733.800 8      2538.361          48.000
G27  24740390.541 8 130011589.292 8     -3247.621          48.000
G31  22248203.309 8 116915071.516 8      3030.504          48.000
G32  20757360.662 8 109080649.222 8     -1543.582          48.000
> 2020 04 04 10 06  5.0000000  0  9      -0.000000000000
G01  22305573.133 8 117216552.937 8      2812.583          48.000
G08  23587568.058 8 123953474.405 8     -2432.478          48.000
G10  22310822.399 8 117244138.450 8     -1982.098          48.000
G11  21119120.404 8 110981706.763 8        91.091          48.000
G14  20493387.943 8 107693464.716 8      -188.844          48.000
G22  23295983.172 8 122421189.010 8      2551.171          48.000
G27  24741009.045 8 130014839.546 8     -3252.873          48.000
G31  22247627.827 8 116912047.343 8      3017.829          48.000
G32  20757654.304 8 109082192.319 8     -1542.642          48.000
> 2020 04 04 10 06  6.0000000  0  9      -0.000000000000
G01  22305036.737 8 117213734.158 8      2824.955          48.000
G08  23588030.709 8 123955905.650 8     -2430.020          48.000
G10  22311200.255 8 117246124.091 8     -1989.209          48.000
G11  21119102.480 8 110981612.575 8        97.297          48.000
G14  20493423.804 8 107693653.169 8      -188.092          48.000
G22  23295496.476 8 122418631.410 8      2563.981          48.000
G27  24741628.549 8 130018095.055 8     -3258.129          48.000
G31  22247054.757 8 116909035.844 8      3005.155          48.000
G32  20757947.767 8 109083734.475 8     -1541.701          48.000
> 2020 04 04 10 06  7.0000000  0  9      -0.000000000000
G01  22304497.986 8 117210903.009 8      2837.322          48.000
G08  23588492.893 8 123958334.439 8     -2427.566          48.000
G10  22311579.464 8 117248116.847 8     -1996.326          48.000
G11  21119083.377 8 110981512.185 8       103.497          48.000
G14  20493459.522 8 107693840.868 8      -187.337          48.000
G22  23295007.343 8 122416061.001 8      2576.790          48.000
G27  24742249.053 8 130021355.821 8     -3263.388          48.000
G31  22246484.099 8 116906037.017 8      2992.484          48.000
G32  20758241.051 8 109085275.691 8     -1540.760          48.000
> 2020 04 04 10 06  8.0000000  0  9      -0.000000000000
G01  22303956.883 8 117208059.494 8      2849.687          48.000
G08  23588954.610 8 123960760.777 8     -2425.117          48.000
G10  22311960.028 8 117250116.722 8     -2003.448          48.000
G11  21119063.094 8 110981405.596 8       109.692          48.000
G14  20493495.096 8 107694027.812 8      -186.581          48.000
G22  23294515.772 8 122413477.783 8      2589.598          48.000
G27  24742870.558 8 130024621.848 8     -3268.650          48.000
G31  22245915.852 8 116903050.861 8      2979.815          48.000
G32  20758534.155 8 109086815.965 8     -1539.819          48.000
> 2020 04 04 10 06  9.0000000  0  9      -0.000000000000
G01  22303413.427 8 117205203.616 8      2862.047          48.000
G08  23589415.862 8 123963184.667 8     -2422.672          48.000
G10  22312341.948 8 117252123.722 8     -2010.576          48.000
G11  21119041.632 8 110981292.815 8       115.882          48.000
G14  20493530.526 8 107694213.998 8      -185.822          48.000
G22  23294021.764 8 122410881.757 8      2602.406          48.000
G27  24743493.065 8 130027893.139 8     -3273.916          48.000
G31  22245350.015 8 116900077.372 8      2967.148          48.000
G32  20758827.081 8 109088355.299 8     -1538.878          48.000
> 2020 04 04 10 06 10.0000000  0  9      -0.000000000000
G01  22302867.619 8 117202335.380 8      2874.404          48.000
G08  23589876.649 8 123965606.115 8     -2420.231          48.000
G10  22312725.225 8 117254137.853 8     -2017.709          48.000
G11  21119018.993 8 110981173.846 8       122.067          48.000
G14  20493565.812 8 107694399.425 8      -185.062          48.000
G22  23293525.319 8 122408272.924 8      2615.212          48.000
G27  24744116.574 8 130031169.697 8     -3279.186          48.000
G31  22244786.588 8 116897116.549 8      2954.484          48.000
G32  20759119.827 8 109089893.691 8     -1537.937          48.000
> 2020 04 04 10 06 11.0000000  0  9      -0.000000000000
G01  22302319.460 8 117199454.788 8      2886.758          48.000
G08  23590336.971 8 123968025.124 8     -2417.795          48.000
G10  22313109.860 8 117256159.120 8     -2024.848          48.000
G11  21118995.177 8 110981048.695 8       128.246          48.000
G14  20493600.952 8 107694584.089 8      -184.299          48.000
G22  23293026.437 8 122405651.285 8      2628.018          48.000
G27  24744741.087 8 130034451.527 8     -3284.458          48.000
G31  22244225.572 8 116894168.390 8      2941.821          48.000
G32  20759412.395 8 109091431.141 8     -1536.995          48.000
> 2020 04 04 10 06 12.0000000  0  9      -0.000000000000
G01  22301768.950 8 117196561.844 8      2899.108          48.000
G08  23590796.831 8 123970441.699 8     -2415.363          48.000
G10  22313495.853 8 117258187.528 8     -2031.993          48.000
G11  21118970.186 8 110980917.367 8       134.421          48.000
G14  20493635.948 8 107694767.990 8      -183.534          48.000
G22  23292525.118 8 122403016.840 8      2640.823          48.000
G27  24745366.603 8 130037738.631 8     -3289.734          48.000
G31  22243666.964 8 116891232.892 8      2929.161          48.000
G32  20759704.783 8 109092967.651 8     -1536.054          48.000
> 2020 04 04 10 06 13.0000000  0  9      -0.000000000000
G01  22301216.091 8 117193656.552 8      2911.454          48.000
G08  23591256.228 8 123972855.843 8     -2412.935          48.000
G10  22313883.207 8 117260223.084 8     -2039.143          48.000
G11  21118944.021 8 110980779.867 8       140.590          48.000
G14  20493670.797 8 107694951.125 8      -182.767          48.000
G22  23292021.362 8 122400369.591 8      2653.627          48.000
G27  24745993.123 8 130041031.012 8     -3295.014          48.000
G31  22243110.766 8 116888310.054 8      2916.503          48.000
G32  20759996.992 8 109094503.218 8     -1535.112          48.000
> 2020 04 04 10 06 14.0000000  0  9      -0.000000000000
G01  22300660.882 8 117190738.915 8      2923.797          48.000
G08  23591715.164 8 123975267.562 8     -2410.511          48.000
G10  22314271.922 8 117262265.793 8     -2046.298          48.000
G11  21118916.682 8 110980636.201 8       146.754          48.000
G14  20493705.500 8 107695133.492 8      -181.998          48.000
G22  23291515.170 8 122397709.538 8      2666.431          48.000
G27  24746620.649 8 130044328.675 8     -3300.297          48.000
G31  22242556.976 8 116885399.872 8      2903.846          48.000
G32  20760289.022 8 109096037.844 8     -1534.170          48.000
> 2020 04 04 10 06 15.0000000  0  9      -0.000000000000
G01  22300103.326 8 117187808.938 8      2936.136          48.000
G08  23592173.638 8 123977676.860 8     -2408.092          48.000
G10  22314661.999 8 117264315.660 8     -2053.460          48.000
G11  21118888.171 8 110980486.373 8       152.912          48.000
G14  20493740.057 8 107695315.089 8      -181.227          48.000
G22  23291006.542 8 122395036.681 8      2679.233          48.000
G27  24747249.180 8 130047631.623 8     -3305.583          48.000
G31  22242005.595 8 116882502.346 8      2891.192          48.000
G32  20760580.872 8 109097571.527 8     -1533.228          48.000
> 2020 04 04 10 06 16.0000000  0  9      -0.000000000000
G01  22299543.421 8 117184866.623 8      2948.472          48.000
G08  23592631.653 8 123980083.741 8     -2405.678          48.000
G10  22315053.440 8 117266372.691 8     -2060.626          48.000
G11  21118858.488 8 110980330.390 8       159.066          48.000
G14  20493774.467 8 107695495.914 8      -180.454          48.000
G22  23290495.478 8 122392351.023 8      2692.035          48.000
G27  24747878.717 8 130050939.858 8     -3310.873          48.000
G31  22241456.621 8 116879617.472 8      2878.541          48.000
G32  20760872.543 8 109099104.269 8     -1532.286          48.000
> 2020 04 04 10 06 17.0000000  0  9      -0.000000000000
G01  22298981.237 8 117181912.328 8      2959.739          48.000
G08  23593089.223 8 123982488.285 8     -2403.496          48.000
G10  22315446.208 8 117268436.700 8     -2067.225          48.000
G11  21118827.672 8 110980168.448 8       164.635          48.000
G14  20493808.736 8 107695675.998 8      -179.778          48.000
G22  23289982.045 8 122389652.921 8      2703.763          48.000
G27  24748509.234 8 130054253.239 8     -3315.726          48.000
G31  22240909.989 8 116876744.906 8      2866.920          48.000
G32  20761164.042 8 109100636.105 8     -1531.452          48.000
> 2020 04 04 10 06 18.0000000  0  9      -0.000000000000
G01  22298417.111 8 117178947.833 8      2968.874          48.000
G08  23593546.422 8 123984890.877 8     -2401.774          48.000
G10  22315840.124 8 117270506.738 8     -2072.683          48.000
G11  21118795.906 8 110980001.518 8       169.043          48.000
G14  20493842.895 8 107695855.504 8      -179.299          48.000
G22  23289466.585 8 122386944.164 8      2713.343          48.000
G27  24749140.590 8 130057571.032 8     -3319.699          48.000
G31  22240365.372 8 116873882.930 8      2857.361          48.000
G32  20761455.403 8 109102167.214 8     -1530.833          48.000
> 2020 04 04 10 06 19.0000000  0  9      -0.000000000000
G01  22297851.450 8 117175975.268 8      2975.878          48.000
G08  23594003.337 8 123987291.977 8     -2400.511          48.000
G10  22316234.969 8 117272581.662 8     -2076.998          48.000
G11  21118763.412 8 110979830.761 8       172.289          48.000
G14  20493876.981 8 107696034.629 8      -179.016          48.000
G22  23288949.507 8 122384226.902 8      2720.775          48.000
G27  24749772.618 8 130060892.358 8     -3322.793          48.000
G31  22239822.379 8 116871029.484 8      2849.861          48.000
G32  20761746.666 8 109103697.812 8     -1530.430          48.000
> 2020 04 04 10 06 20.0000000  0  9      -0.000000000000
G01  22297284.660 8 117172996.766 8      2980.750          48.000
G08  23594460.055 8 123989692.044 8     -2399.707          48.000
G10  22316630.527 8 117274660.329 8     -2080.168          48.000
G11  21118730.410 8 110979657.337 8       174.376          48.000
G14  20493911.032 8 107696213.570 8      -178.931          48.000
G22  23288431.218 8 122381503.280 8      2726.061          48.000
G27  24750405.152 8 130064216.339 8     -3325.006          48.000
G31  22239280.617 8 116868182.506 8      2844.422          48.000
G32  20762037.873 8 109105228.114 8     -1530.243          48.000
> 2020 04 04 10 06 21.0000000  0  9      -0.000000000000
G01  22296717.144 8 117170014.456 8      2983.493          48.000
G08  23594916.664 8 123992091.536 8     -2399.360          48.000
G10  22317026.579 8 117276741.594 8     -2082.194          48.000
G11  21118697.122 8 110979482.405 8       175.305          48.000
G14  20493945.086 8 107696392.524 8      -179.043          48.000
G22  23287912.128 8 122378775.446 8      2729.200          48.000
G27  24751038.022 8 130067542.092 8     -3326.338          48.000
G31  22238739.693 8 116865339.939 8      2841.041          48.000
G32  20762329.065 8 109106758.337 8     -1530.271          48.000
> 2020 04 04 10 06 22.0000000  0  9      -0.000000000000
G01  22296149.310 8 117167030.468 8      2984.106          48.000
G08  23595373.250 8 123994490.909 8     -2399.470          48.000
G10  22317422.907 8 117278824.311 8     -2083.072          48.000
G11  21118663.767 8 110979307.123 8       175.077          48.000
G14  20493979.180 8 107696571.690 8      -179.354          48.000
G22  23287392.644 8 122376045.546 8      2730.192          48.000
G27  24751671.063 8 130070868.736 8     -3326.788          48.000
G31  22238199.218 8 116862499.723 8      2839.719          48.000
G32  20762620.283 8 109108288.697 8     -1530.515          48.000
> 2020 04 04 10 06 23.0000000  0  9      -0.000000000000
G01  22295580.910 8 117164043.509 8      2989.784          48.000
G08  23595829.500 8 123996888.517 8     -2395.765          48.000
G10  22317818.736 8 117280904.404 8     -2077.143          48.000
G11  21118629.771 8 110979128.476 8       182.224          48.000
G14  20494012.349 8 107696745.991 8      -169.285          48.000
G22  23286872.633 8 122373312.869 8      2735.106          48.000
G27  24752303.919 8 130074194.414 8     -3324.569          48.000
G31  22237658.308 8 116859657.227 8      2845.254          48.000
G32  20762910.675 8 109109814.714 8     -1521.556          48.000
> 2020 04 04 10 06 24.0000000  0  9      -0.000000000000
G01  22295011.428 8 117161050.865 8      2995.466          48.000
G08  23596285.044 8 123999282.414 8     -2392.063          48.000
G10  22318213.436 8 117282978.563 8     -2071.215          48.000
G11  21118594.415 8 110978942.677 8       189.372          48.000
G14  20494043.600 8 107696910.220 8      -159.215          48.000
G22  23286351.684 8 122370575.269 8      2740.023          48.000
G27  24752936.351 8 130077517.859 8     -3322.353          48.000
G31  22237116.343 8 116856809.187 8      2850.793          48.000
G32  20763199.361 8 109111331.770 8     -1512.599          48.000
> 2020 04 04 10 06 25.0000000  0  9      -0.000000000000
G01  22294440.863 8 117158052.532 8      3001.150          48.000
G08  23596739.883 8 124001672.601 8     -2388.364          48.000
G10  22318607.007 8 117285046.789 8     -2065.290          48.000
G11  21118557.697 8 110978749.725 8       196.520          48.000
G14  20494072.935 8 107697064.376 8      -149.146          48.000
G22  23285829.798 8 122367832.744 8      2744.942          48.000
G27  24753568.358 8 130080839.073 8     -3320.140          48.000
G31  22236573.323 8 116853955.601 8      2856.335          48.000
G32  20763486.342 8 109112839.866 8     -1503.643          48.000
> 2020 04 04 10 06 26.0000000  0  9      -0.000000000000
G01  22293869.215 8 117155048.507 8      3006.838          48.000
G08  23597194.015 8 124004059.082 8     -2384.667          48.000
G10  22318999.449 8 117287109.086 8     -2059.367          48.000
G11  21118519.619 8 110978549.620 8       203.669          48.000
G14  20494100.354 8 107697208.460 8      -139.077          48.000
G22  23285306.975 8 122365085.292 8      2749.865          48.000
G27  24754199.941 8 130084158.060 8     -3317.930          48.000
G31  22236029.247 8 116851096.465 8      2861.880          48.000
G32  20763771.619 8 109114339.004 8     -1494.690          48.000
> 2020 04 04 10 06 27.0000000  0  9      -0.000000000000
G01  22293296.484 8 117152038.787 8      3012.529          48.000
G08  23597647.443 8 124006441.858 8     -2380.972          48.000
G10  22319390.764 8 117289165.455 8     -2053.446          48.000
G11  21118480.179 8 110978342.363 8       210.817          48.000
G14  20494125.855 8 107697342.472 8      -129.009          48.000
G22  23284783.213 8 122362332.909 8      2754.789          48.000
G27  24754831.101 8 130087474.823 8     -3315.723          48.000
G31  22235484.115 8 116848231.777 8      2867.428          48.000
G32  20764055.191 8 109115829.185 8     -1485.739          48.000
> 2020 04 04 10 06 28.0000000  0  9      -0.000000000000
G01  22292722.668 8 117149023.369 8      3018.222          48.000
G08  23598100.166 8 124008820.931 8     -2377.280          48.000
G10  22319780.951 8 117291215.898 8     -2047.527          48.000
G11  21118439.378 8 110978127.952 8       217.966          48.000
G14  20494149.440 8 107697466.411 8      -118.940          48.000
G22  23284258.512 8 122359575.593 8      2759.717          48.000
G27  24755461.839 8 130090789.364 8     -3313.519          48.000
G31  22234937.925 8 116845361.533 8      2872.980          48.000
G32  20764337.060 8 109117310.412 8     -1476.789          48.000
> 2020 04 04 10 06 29.0000000  0  9      -0.000000000000
G01  22292147.768 8 117146002.251 8      3023.919          48.000
G08  23598552.186 8 124011196.306 8     -2373.590          48.000
G10  22320170.010 8 117293260.419 8     -2041.611          48.000
G11  21118397.216 8 110977906.389 8       225.115          48.000
G14  20494171.108 8 107697580.279 8      -108.871          48.000
G22  23283732.873 8 122356813.341 8      2764.647          48.000
G27  24756092.154 8 130094101.688 8     -3311.319          48.000
G31  22234390.677 8 116842485.730 8      2878.534          48.000
G32  20764617.224 8 109118782.687 8     -1467.841          48.000
> 2020 04 04 10 06 30.0000000  0  9      -0.000000000000
G01  22291571.782 8 117142975.429 8      3029.618          48.000
G08  23599003.502 8 124013567.983 8     -2369.903          48.000
G10  22320557.944 8 117295299.019 8     -2035.697          48.000
G11  21118353.692 8 110977677.672 8       232.264          48.000
G14  20494190.860 8 107697684.075 8       -98.803          48.000
G22  23283206.293 8 122354046.150 8      2769.580          48.000
G27  24756722.048 8 130097411.797 8     -3309.121          48.000
G31  22233842.371 8 116839604.364 8      2884.092          48.000
G32  20764895.686 8 109120246.011 8     -1458.895          48.000
> 2020 04 04 10 06 31.0000000  0  9      -0.000000000000
G01  22290994.711 8 117139942.900 8      3035.321          48.000
G08  23599454.115 8 124015935.966 8     -2366.219          48.000
G10  22320944.750 8 117297331.700 8     -2029.785          48.000
G11  21118308.808 8 110977441.802 8       239.413          48.000
G14  20494208.695 8 107697777.799 8       -88.735          48.000
G22  23282678.773 8 122351274.019 8      2774.515          48.000
G27  24757351.521 8 130100719.694 8     -3306.927          48.000
G31  22233293.005 8 116836717.433 8      2889.654          48.000
G32  20765172.445 8 109121700.387 8     -1449.951          48.000
> 2020 04 04 10 06 32.0000000  0  9      -0.000000000000
G01  22290416.553 8 117136904.662 8      3040.978          48.000
G08  23599904.025 8 124018300.258 8     -2362.569          48.000
G10  22321330.432 8 117299358.465 8     -2023.925          48.000
G11  21118262.562 8 110977198.779 8       246.499          48.000
G14  20494224.614 8 107697861.452 8       -78.750          48.000
G22  23282150.313 8 122348496.944 8      2779.414          48.000
G27  24757980.573 8 130104025.383 8     -3304.753          48.000
G31  22232742.580 8 116833824.934 8      2895.172          48.000
G32  20765447.501 8 109123145.816 8     -1441.083          48.000
> 2020 04 04 10 06 33.0000000  0  9      -0.000000000000
G01  22289837.901 8 117133863.833 8      3040.546          48.000
G08  23600353.624 8 124020662.913 8     -2362.922          48.000
G10  22321715.590 8 117301382.483 8     -2024.245          48.000
G11  21118215.724 8 110976952.644 8       245.693          48.000
G14  20494239.629 8 107697940.358 8       -79.161          48.000
G22  23281621.395 8 122345717.468 8      2779.350          48.000
G27  24758609.422 8 130107330.001 8     -3304.781          48.000
G31  22232191.660 8 116830929.831 8      2894.900          48.000
G32  20765721.755 8 109124587.028 8     -1441.447          48.000
> 2020 04 04 10 06 34.0000000  0  9      -0.000000000000
G01  22289259.332 8 117130823.435 8      3040.114          48.000
G08  23600803.290 8 124023025.922 8     -2363.275          48.000
G10  22322100.809 8 117303406.820 8     -2024.565          48.000
G11  21118169.039 8 110976707.316 8       244.888          48.000
G14  20494254.723 8 107698019.674 8       -79.571          48.000
G22  23281092.490 8 122342938.056 8      2779.286          48.000
G27  24759238.277 8 130110634.648 8     -3304.810          48.000
G31  22231640.791 8 116828034.999 8      2894.629          48.000
G32  20765996.078 8 109126028.604 8     -1441.811          48.000
> 2020 04 04 10 06 35.0000000  0  9      -0.000000000000
G01  22288680.845 8 117127783.469 8      3039.683          48.000
G08  23601253.024 8 124025389.284 8     -2363.629          48.000
G10  22322486.089 8 117305431.478 8     -2024.886          48.000
G11  21118122.508 8 110976462.793 8       244.082          48.000
G14  20494269.894 8 107698099.402 8       -79.982          48.000
G22  23280563.597 8 122340158.708 8      2779.223          48.000
G27  24759867.137 8 130113939.323 8     -3304.838          48.000
G31  22231089.974 8 116825140.439 8      2894.357          48.000
G32  20766270.470 8 109127470.544 8     -1442.175          48.000
> 2020 04 04 10 06 36.0000000  0  9      -0.000000000000
G01  22288102.440 8 117124743.936 8      3039.251          48.000
G08  23601702.824 8 124027752.999 8     -2363.982          48.000
G10  22322871.430 8 117307456.457 8     -2025.206          48.000
G11  21118076.130 8 110976219.076 8       243.276          48.000
G14  20494285.144 8 107698179.540 8       -80.393          48.000
G22  23280034.716 8 122337379.424 8      2779.159          48.000
G27  24760496.002 8 130117244.028 8     -3304.867          48.000
G31  22230539.209 8 116822246.152 8      2894.086          48.000
G32  20766544.932 8 109128912.849 8     -1442.539          48.000
> 2020 04 04 10 06 37.0000000  0  9      -0.000000000000
G01  22287524.118 8 117121704.834 8      3038.819          48.000
G08  23602152.692 8 124030117.068 8     -2364.335          48.000
G10  22323256.832 8 117309481.755 8     -2025.526          48.000
G11  21118029.906 8 110975976.165 8       242.471          48.000
G14  20494300.472 8 107698260.089 8       -80.803          48.000
G22  23279505.848 8 122334600.204 8      2779.095          48.000
G27  24761124.873 8 130120548.761 8     -3304.895          48.000
G31  22229988.495 8 116819352.136 8      2893.814          48.000
G32  20766819.462 8 109130355.517 8     -1442.903          48.000
> 2020 04 04 10 06 38.0000000  0  9      -0.000000000000
G01  22286945.878 8 117118666.165 8      3038.387          48.000
G08  23602602.627 8 124032481.489 8     -2364.687          48.000
G10  22323642.295 8 117311507.374 8     -2025.846          48.000
G11  21117983.835 8 110975734.060 8       241.665          48.000
G14  20494315.878 8 107698341.048 8       -81.214          48.000
G22  23278976.991 8 122331821.048 8      2779.031          48.000
G27  24761753.749 8 130123853.522 8     -3304.923          48.000
G31  22229437.834 8 116816458.392 8      2893.542          48.000
G32  20767094.063 8 109131798.549 8     -1443.267          48.000
> 2020 04 04 10 06 39.0000000  0  9      -0.000000000000
G01  22286367.720 8 117115627.928 8      3037.954          48.000
G08  23603052.630 8 124034846.264 8     -2365.040          48.000
G10  22324027.819 8 117313533.314 8     -2026.166          48.000
G11  21117937.917 8 110975492.760 8       240.859          48.000
G14  20494331.362 8 107698422.419 8       -81.625          48.000
G22  23278448.147 8 122329041.956 8      2778.967          48.000
G27  24762382.631 8 130127158.312 8     -3304.951          48.000
G31  22228887.224 8 116813564.920 8      2893.270          48.000
G32  20767368.732 8 109133241.946 8     -1443.631          48.000
> 2020 04 04 10 06 40.0000000  0  9      -0.000000000000
G01  22285789.644 8 117112590.123 8      3037.522          48.000
G08  23603502.699 8 124037211.391 8     -2365.393          48.000
G10  22324413.404 8 117315559.573 8     -2026.486          48.000
G11  21117892.152 8 110975252.266 8       240.054          48.000
G14  20494346.925 8 107698504.200 8       -82.035          48.000
G22  23277919.315 8 122326262.928 8      2778.903          48.000
G27  24763011.518 8 130130463.130 8     -3304.979          48.000
G31  22228336.665 8 116810671.721 8      2892.998          48.000
G32  20767643.470 8 109134685.706 8     -1443.994          48.000
> 2020 04 04 10 06 41.0000000  0  9      -0.000000000000
G01  22285211.651 8 117109552.752 8      3037.089          48.000
G08  23603952.836 8 124039576.872 8     -2365.745          48.000
G10  22324799.049 8 117317586.153 8     -2026.807          48.000
G11  21117846.541 8 110975012.579 8       239.248          48.000
G14  20494362.565 8 107698586.392 8       -82.446          48.000
G22  23277390.495 8 122323483.964 8      2778.839          48.000
G27  24763640.410 8 130133767.976 8     -3305.007          48.000
G31  22227786.159 8 116807778.794 8      2892.725          48.000
G32  20767918.278 8 109136129.830 8     -1444.358          48.000
> 2020 04 04 10 06 42.0000000  0  9      -0.000000000000
G01  22284633.740 8 117106515.812 8      3036.657          48.000
G08  23604403.040 8 124041942.705 8     -2366.098          48.000
G10  22325184.756 8 117319613.053 8     -2027.127          48.000
G11  21117801.083 8 110974773.697 8       238.442          48.000
G14  20494378.284 8 107698668.995 8       -82.857          48.000
G22  23276861.687 8 122320705.065 8      2778.775          48.000
G27  24764269.308 8 130137072.850 8     -3305.035          48.000
G31  22227235.705 8 116804886.139 8      2892.453          48.000
G32  20768193.155 8 109137574.318 8     -1444.722          48.000
> 2020 04 04 10 06 43.0000000  0  9      -0.000000000000
G01  22284055.911 8 117103479.306 8      3036.224          48.000
G08  23604853.310 8 124044308.890 8     -2366.450          48.000
G10  22325570.524 8 117321640.273 8     -2027.447          48.000
G11  21117755.779 8 110974535.620 8       237.636          48.000
G14  20494394.081 8 107698752.008 8       -83.267          48.000
G22  23276332.892 8 122317926.230 8      2778.711          48.000
G27  24764898.211 8 130140377.752 8     -3305.062          48.000
G31  22226685.302 8 116801993.757 8      2892.181          48.000
G32  20768468.102 8 109139019.169 8     -1445.086          48.000
> 2020 04 04 10 06 44.0000000  0  9      -0.000000000000
G01  22283478.165 8 117100443.233 8      3035.791          48.000
G08  23605303.648 8 124046675.428 8     -2366.802          48.000
G10  22325956.353 8 117323667.814 8     -2027.767          48.000
G11  21117710.628 8 110974298.350 8       236.831          48.000
G14  20494409.956 8 107698835.432 8       -83.678          48.000
G22  23275804.109 8 122315147.459 8      2778.647          48.000
G27  24765527.119 8 130143682.682 8     -3305.090          48.000
G31  22226134.951 8 116799101.648 8      2891.908          48.000
G32  20768743.117 8 109140464.384 8     -1445.449          48.000
> 2020 04 04 10 06 45.0000000  0  9      -0.000000000000
G01  22282900.501 8 117097407.593 8      3035.358          48.000
G08  23605754.053 8 124049042.319 8     -2367.154          48.000
G10  22326342.242 8 117325695.675 8     -2028.087          48.000
G11  21117665.630 8 110974061.886 8       236.025          48.000
G14  20494425.909 8 107698919.266 8       -84.088          48.000
G22  23275275.338 8 122312368.752 8      2778.583          48.000
G27  24766156.033 8 130146987.640 8     -3305.117          48.000
G31  22225584.652 8 116796209.811 8      2891.635          48.000
G32  20769018.202 8 109141909.963 8     -1445.813          48.000
> 2020 04 04 10 06 46.0000000  0  9      -0.000000000000
G01  22282322.920 8 117094372.385 8      3034.925          48.000
G08  23606204.525 8 124051409.561 8     -2367.506          48.000
G10  22326728.193 8 117327723.856 8     -2028.407          48.000
G11  21117620.786 8 110973826.227 8       235.219          48.000
G14  20494441.941 8 107699003.511 8       -84.499          48.000
G22  23274746.579 8 122309590.110 8      2778.519          48.000
G27  24766784.952 8 130150292.625 8     -3305.144          48.000
G31  22225034.406 8 116793318.247 8      2891.363          48.000
G32  20769293.356 8 109143355.906 8     -1446.176          48.000
> 2020 04 04 10 06 47.0000000  0  9      -0.000000000000
G01  22281745.421 8 117091337.612 8      3034.492          48.000
G08  23606655.064 8 124053777.156 8     -2367.858          48.000
G10  22327114.204 8 117329752.358 8     -2028.728          48.000
G11  21117576.095 8 110973591.374 8       234.413          48.000
G14  20494458.050 8 107699088.167 8       -84.909          48.000
G22  23274217.832 8 122306811.533 8      2778.454          48.000
G27  24767413.876 8 130153597.638 8     -3305.172          48.000
G31  22224484.211 8 116790426.956 8      2891.090          48.000
G32  20769568.579 8 109144802.212 8     -1446.540          48.000
> 2020 04 04 10 06 48.0000000  0  9      -0.000000000000
G01  22281168.005 8 117088303.271 8      3034.059          48.000
G08  23607105.670 8 124056145.102 8     -2368.210          48.000
G10  22327500.277 8 117331781.180 8     -2029.048          48.000
G11  21117531.557 8 110973357.327 8       233.608          48.000
G14  20494474.238 8 107699173.234 8       -85.320          48.000
G22  23273689.098 8 122304033.020 8      2778.390          48.000
G27  24768042.805 8 130156902.678 8     -3305.199          48.000
G31  22223934.068 8 116787535.939 8      2890.817          48.000
G32  20769843.871 8 109146248.882 8     -1446.903          48.000
> 2020 04 04 10 06 49.0000000  0  9      -0.000000000000
G01  22280590.671 8 117085269.364 8      3033.625          48.000
G08  23607556.343 8 124058513.401 8     -2368.562          48.000
G10  22327886.410 8 117333810.322 8     -2029.368          48.000
G11  21117487.173 8 110973124.086 8       232.802          48.000
G14  20494490.503 8 107699258.710 8       -85.730          48.000
G22  23273160.376 8 122301254.571 8      2778.326          48.000
G27  24768671.739 8 130160207.745 8     -3305.226          48.000
G31  22223383.977 8 116784645.194 8      2890.544          48.000
G32  20770119.233 8 109147695.916 8     -1447.267          48.000
> 2020 04 04 10 06 50.0000000  0  9      -0.000000000000
G01  22280013.419 8 117082235.891 8      3033.192          48.000
G08  23608007.083 8 124060882.051 8     -2368.913          48.000
G10  22328272.604 8 117335839.784 8     -2029.688          48.000
G11  21117442.942 8 110972891.651 8       231.996          48.000
G14  20494506.847 8 107699344.598 8       -86.141          48.000
G22  23272631.667 8 122298476.187 8      2778.261          48.000
G27  24769300.679 8 130163512.839 8     -3305.252          48.000
G31  22222833.938 8 116781754.723 8      2890.271          48.000
G32  20770394.664 8 109149143.312 8     -1447.630          48.000
> 2020 04 04 10 06 51.0000000  0  9      -0.000000000000
G01  22279436.250 8 117079202.852 8      3032.758          48.000
G08  23608457.889 8 124063251.053 8     -2369.264          48.000
G10  22328658.860 8 117337869.567 8     -2030.008          48.000
G11  21117398.864 8 110972660.022 8       231.190          48.000
G14  20494523.269 8 107699430.896 8       -86.551          48.000
G22  23272102.970 8 122295697.868 8      2778.197          48.000
G27  24769929.624 8 130166817.961 8     -3305.279          48.000
G31  22222283.951 8 116778864.525 8      2889.997          48.000
G32  20770670.163 8 109150591.073 8     -1447.993          48.000
> 2020 04 04 10 06 52.0000000  0  9      -0.000000000000
G01  22278859.164 8 117076170.246 8      3032.324          48.000
G08  23608908.763 8 124065620.406 8     -2369.616          48.000
G10  22329045.176 8 117339899.670 8     -2030.328          48.000
G11  21117354.940 8 110972429.199 8       230.385          48.000
G14  20494539.769 8 107699517.605 8       -86.962          48.000
G22  23271574.285 8 122292919.613 8      2778.132          48.000
G27  24770558.574 8 130170123.109 8     -3305.306          48.000
G31  22221734.016 8 116775974.600 8      2889.724          48.000
G32  20770945.732 8 109152039.197 8     -1448.357          48.000
> 2020 04 04 10 06 53.0000000  0  9      -0.000000000000
G01  22278282.160 8 117073138.075 8      3031.891          48.000
G08  23609359.703 8 124067990.111 8     -2369.967          48.000
G10  22329431.553 8 117341930.093 8     -2030.648          48.000
G11  21117311.169 8 110972199.181 8       229.579          48.000
G14  20494556.348 8 107699604.724 8       -87.372          48.000
G22  23271045.612 8 122290141.424 8      2778.068          48.000
G27  24771187.529 8 130173428.284 8     -3305.332          48.000
G31  22221184.133 8 116773084.950 8      2889.451          48.000
G32  20771221.371 8 109153487.684 8     -1448.720          48.000
> 2020 04 04 10 06 54.0000000  0  9      -0.000000000000
G01  22277705.239 8 117070106.337 8      3031.456          48.000
G08  23609810.711 8 124070360.167 8     -2370.318          48.000
G10  22329817.991 8 117343960.837 8     -2030.969          48.000
G11  21117267.551 8 110971969.970 8       228.773          48.000
G14  20494573.004 8 107699692.253 8       -87.783          48.000
G22  23270516.952 8 122287363.298 8      2778.003          48.000
G27  24771816.489 8 130176733.486 8     -3305.359          48.000
G31  22220634.302 8 116770195.572 8      2889.177          48.000
G32  20771497.078 8 109154936.534 8     -1449.083          48.000
> 2020 04 04 10 06 55.0000000  0  9      -0.000000000000
G01  22277128.401 8 117067075.034 8      3031.022          48.000
G08  23610261.785 8 124072730.574 8     -2370.669          48.000
G10  22330204.490 8 117345991.900 8     -2031.289          48.000
G11  21117224.087 8 110971741.564 8       227.967          48.000
G14  20494589.738 8 107699780.193 8       -88.193          48.000
G22  23269988.304 8 122284585.238 8      2777.939          48.000
G27  24772445.454 8 130180038.715 8     -3305.385          48.000
G31  22220084.523 8 116767306.469 8      2888.903          48.000
G32  20771772.854 8 109156385.748 8     -1449.446          48.000
> 2020 04 04 10 06 56.0000000  0  9      -0.000000000000
G01  22276551.645 8 117064044.165 8      3030.588          48.000
G08  23610712.926 8 124075101.333 8     -2371.020          48.000
G10  22330591.050 8 117348023.284 8     -2031.609          48.000
G11  21117180.776 8 110971513.964 8       227.161          48.000
G14  20494606.551 8 107699868.543 8       -88.603          48.000
G22  23269459.668 8 122281807.243 8      2777.874          48.000
G27  24773074.424 8 130183343.970 8     -3305.411          48.000
G31  22219534.796 8 116764417.639 8      2888.630          48.000
G32  20772048.700 8 109157835.325 8     -1449.810          48.000
> 2020 04 04 10 06 57.0000000  0  9      -0.000000000000
G01  22275974.972 8 117061013.730 8      3030.154          48.000
G08  23611164.134 8 124077472.442 8     -2371.371          48.000
G10  22330977.671 8 117350054.989 8     -2031.929          48.000
G11  21117137.619 8 110971287.170 8       226.356          48.000
G14  20494623.442 8 107699957.304 8       -89.014          48.000
G22  23268931.045 8 122279029.312 8      2777.809          48.000
G27  24773703.399 8 130186649.251 8     -3305.437          48.000
G31  22218985.122 8 116761529.083 8      2888.356          48.000
G32  20772324.614 8 109159285.265 8     -1450.173          48.000
> 2020 04 04 10 06 58.0000000  0  9      -0.000000000000
G01  22275398.381 8 117057983.731 8      3029.719          48.000
G08  23611615.408 8 124079843.903 8     -2371.721          48.000
G10  22331364.353 8 117352087.013 8     -2032.249          48.000
G11  21117094.615 8 110971061.182 8       225.550          48.000
G14  20494640.410 8 107700046.476 8       -89.424          48.000
G22  23268402.434 8 122276251.446 8      2777.744          48.000
G27  24774332.379 8 130189954.559 8     -3305.463          48.000
G31  22218435.500 8 116758640.802 8      2888.082          48.000
G32  20772600.598 8 109160735.568 8     -1450.536          48.000
> 2020 04 04 10 06 59.0000000  0  9      -0.000000000000
G01  22274821.873 8 117054954.165 8      3029.285          48.000
G08  23612066.750 8 124082215.714 8     -2372.072          48.000
G10  22331751.096 8 117354119.358 8     -2032.569          48.000
G11  21117051.764 8 110970836.000 8       224.744          48.000
G14  20494657.457 8 107700136.057 8       -89.834          48.000
G22  23267873.835 8 122273473.646 8      2777.680          48.000
G27  24774961.365 8 130193259.892 8     -3305.489          48.000
G31  22217885.930 8 116755752.794 8      2887.808          48.000
G32  20772876.651 8 109162186.235 8     -1450.899          48.000
> 2020 04 04 10 07  0.0000000  0  9      -0.000000000000
G01  22274245.448 8 117051925.035 8      3028.850          48.000
G08  23612518.158 8 124084587.875 8     -2372.422          48.000
G10  22332137.900 8 117356152.023 8     -2032.889          48.000
G11  21117009.067 8 110970611.624 8       223.938          48.000
G14  20494674.582 8 107700226.049 8       -90.244          48.000
G22  23267345.249 8 122270695.910 8      2777.615          48.000
G27  24775590.355 8 130196565.252 8     -3305.515          48.000
G31  22217336.412 8 116752865.061 8      2887.534          48.000
G32  20773152.773 8 109163637.264 8     -1451.262          48.000
> 2020 04 04 10 07  1.0000000  0  9      -0.000000000000
G01  22273669.106 8 117048896.339 8      3028.415          48.000
G08  23612969.632 8 124086960.388 8     -2372.773          48.000
G10  22332524.764 8 117358185.008 8     -2033.210          48.000
G11  21116966.522 8 110970388.054 8       223.132          48.000
G14  20494691.785 8 107700316.452 8       -90.655          48.000
G22  23266816.675 8 122267918.240 8      2777.550          48.000
G27  24776219.350 8 130199870.638 8     -3305.540          48.000
G31  22216786.946 8 116749977.602 8      2887.259          48.000
G32  20773428.964 8 109165088.657 8     -1451.625          48.000
> 2020 04 04 10 07  2.0000000  0  9      -0.000000000000
G01  22273092.847 8 117045868.079 8      3027.980          48.000
G08  23613421.174 8 124089333.250 8     -2373.123          48.000
G10  22332911.690 8 117360218.314 8     -2033.530          48.000
G11  21116924.132 8 110970165.290 8       222.327          48.000
G14  20494709.066 8 107700407.264 8       -91.065          48.000
G22  23266288.114 8 122265140.634 8      2777.485          48.000
G27  24776848.350 8 130203176.049 8     -3305.566          48.000
G31  22216237.532 8 116747090.418 8      2886.985          48.000
G32  20773705.224 8 109166540.413 8     -1451.988          48.000
> 2020 04 04 10 07  3.0000000  0  9      -0.000000000000
G01  22272516.670 8 117042840.254 8      3027.545          48.000
G08  23613872.782 8 124091706.463 8     -2373.473          48.000
G10  22333298.677 8 117362251.940 8     -2033.850          48.000
G11  21116881.894 8 110969943.331 8       221.521          48.000
G14  20494726.425 8 107700498.487 8       -91.475          48.000
G22  23265759.565 8 122262363.094 8      2777.420          48.000
G27  24777477.354 8 130206481.487 8     -3305.591          48.000
G31  22215688.171 8 116744203.508 8      2886.711          48.000
G32  20773981.553 8 109167992.531 8     -1452.350          48.000
> 2020 04 04 10 07  4.0000000  0  9      -0.000000000000
G01  22271940.576 8 117039812.864 8      3027.110          48.000
G08  23614324.457 8 124094080.027 8     -2373.823          48.000
G10  22333685.724 8 117364285.886 8     -2034.170          48.000
G11  21116839.811 8 110969722.179 8       220.715          48.000
G14  20494743.863 8 107700590.121 8       -91.885          48.000
G22  23265231.028 8 122259585.619 8      2777.355          48.000
G27  24778106.364 8 130209786.949 8     -3305.616          48.000
G31  22215138.862 8 116741316.873 8      2886.436          48.000
G32  20774257.952 8 109169445.013 8     -1452.713          48.000
> 2020 04 04 10 07  5.0000000  0  9      -0.000000000000
G01  22271364.565 8 117036785.909 8      3026.675          48.000
G08  23614776.198 8 124096453.940 8     -2374.173          48.000
G10  22334072.833 8 117366320.152 8     -2034.490          48.000
G11  21116797.880 8 110969501.832 8       219.909          48.000
G14  20494761.378 8 107700682.164 8       -92.296          48.000
G22  23264702.504 8 122256808.209 8      2777.290          48.000
G27  24778735.379 8 130213092.438 8     -3305.641          48.000
G31  22214589.605 8 116738430.513 8      2886.161          48.000
G32  20774534.419 8 109170897.857 8     -1453.076          48.000
> 2020 04 04 10 07  6.0000000  0  9      -0.000000000000
G01  22270788.637 8 117033759.390 8      3026.239          48.000
G08  23615228.006 8 124098828.203 8     -2374.522          48.000
G10  22334460.002 8 117368354.739 8     -2034.810          48.000
G11  21116756.103 8 110969282.292 8       219.103          48.000
G14  20494778.971 8 107700774.618 8       -92.706          48.000
G22  23264173.992 8 122254030.865 8      2777.225          48.000
G27  24779364.398 8 130216397.951 8     -3305.667          48.000
G31  22214040.401 8 116735544.427 8      2885.887          48.000
G32  20774810.955 8 109172351.065 8     -1453.439          48.000
> 2020 04 04 10 07  7.0000000  0  9      -0.000000000000
G01  22270212.792 8 117030733.306 8      3025.804          48.000
G08  23615679.880 8 124101202.816 8     -2374.872          48.000
G10  22334847.232 8 117370389.646 8     -2035.130          48.000
G11  21116714.479 8 110969063.557 8       218.297          48.000
G14  20494796.643 8 107700867.482 8       -93.116          48.000
G22  23263645.493 8 122251253.586 8      2777.159          48.000
G27  24779993.422 8 130219703.490 8     -3305.691          48.000
G31  22213491.249 8 116732658.617 8      2885.612          48.000
G32  20775087.561 8 109173804.635 8     -1453.802          48.000
> 2020 04 04 10 07  8.0000000  0  9      -0.000000000000
G01  22269637.029 8 117027707.659 8      3025.368          48.000
G08  23616131.821 8 124103577.779 8     -2375.222          48.000
G10  22335234.524 8 117372424.873 8     -2035.450          48.000
G11  21116673.008 8 110968845.629 8       217.492          48.000
G14  20494814.392 8 107700960.757 8       -93.526          48.000
G22  23263117.006 8 122248476.372 8      2777.094          48.000
G27  24780622.451 8 130223009.054 8     -3305.716          48.000
G31  22212942.149 8 116729773.081 8      2885.337          48.000
G32  20775364.235 8 109175258.567 8     -1454.164          48.000
> 2020 04 04 10 07  9.0000000  0  9      -0.000000000000
G01  22269061.350 8 117024682.447 8      3024.932          48.000
G08  23616583.829 8 124105953.092 8     -2375.571          48.000
G10  22335621.876 8 117374460.420 8     -2035.771          48.000
G11  21116631.691 8 110968628.506 8       216.686          48.000
G14  20494832.220 8 107701054.441 8       -93.936          48.000
G22  23262588.532 8 122245699.224 8      2777.029          48.000
G27  24781251.485 8 130226314.643 8     -3305.741          48.000
G31  22212393.101 8 116726887.821 8      2885.062          48.000
G32  20775640.978 8 109176712.863 8     -1454.527          48.000
> 2020 04 04 10 07 10.0000000  0  9      -0.000000000000
G01  22268485.754 8 117021657.671 8      3024.497          48.000
G08  23617035.903 8 124108328.754 8     -2375.920          48.000
G10  22336009.289 8 117376496.288 8     -2036.091          48.000
G11  21116590.528 8 110968412.189 8       215.880          48.000
G14  20494850.126 8 107701148.536 8       -94.346          48.000
G22  23262060.070 8 122242922.141 8      2776.964          48.000
G27  24781880.524 8 130229620.257 8     -3305.766          48.000
G31  22211844.106 8 116724002.836 8      2884.787          48.000
G32  20775917.791 8 109178167.521 8     -1454.889          48.000
> 2020 04 04 10 07 11.0000000  0  9      -0.000000000000
G01  22267910.240 8 117018633.331 8      3024.061          48.000
G08  23617488.044 8 124110704.766 8     -2376.270          48.000
G10  22336396.763 8 117378532.476 8     -2036.411          48.000
G11  21116549.517 8 110968196.678 8       215.074          48.000
G14  20494868.109 8 107701243.041 8       -94.756          48.000
G22  23261531.620 8 122240145.124 8      2776.898          48.000
G27  24782509.567 8 130232925.896 8     -3305.790          48.000
G31  22211295.164 8 116721118.126 8      2884.511          48.000
G32  20776194.672 8 109179622.542 8     -1455.252          48.000
> 2020 04 04 10 07 12.0000000  0  9      -0.000000000000
G01  22267334.810 8 117015609.427 8      3023.625          48.000
G08  23617940.251 8 124113081.126 8     -2376.619          48.000
G10  22336784.298 8 117380568.984 8     -2036.731          48.000
G11  21116508.660 8 110967981.973 8       214.268          48.000
G14  20494886.171 8 107701337.956 8       -95.167          48.000
G22  23261003.183 8 122237368.172 8      2776.833          48.000
G27  24783138.615 8 130236231.559 8     -3305.815          48.000
G31  22210746.274 8 116718233.692 8      2884.236          48.000
G32  20776471.623 8 109181077.926 8     -1455.614          48.000
> 2020 04 04 10 07 13.0000000  0  9      -0.000000000000
G01  22266759.462 8 117012585.959 8      3023.188          48.000
G08  23618392.524 8 124115457.837 8     -2376.968          48.000
G10  22337171.894 8 117382605.812 8     -2037.051          48.000
G11  21116467.956 8 110967768.075 8       213.462          48.000
G14  20494904.311 8 107701433.282 8       -95.577          48.000
G22  23260474.759 8 122234591.286 8      2776.767          48.000
G27  24783767.667 8 130239537.247 8     -3305.839          48.000
G31  22210197.436 8 116715349.533 8      2883.961          48.000
G32  20776748.642 8 109182533.672 8     -1455.977          48.000
> 2020 04 04 10 07 14.0000000  0  9      -0.000000000000
G01  22266184.198 8 117009562.928 8      3022.752          48.000
G08  23618844.864 8 124117834.896 8     -2377.317          48.000
G10  22337559.551 8 117384642.961 8     -2037.371          48.000
G11  21116427.406 8 110967554.982 8       212.656          48.000
G14  20494922.529 8 107701529.017 8       -95.987          48.000
G22  23259946.346 8 122231814.465 8      2776.702          48.000
G27  24784396.724 8 130242842.960 8     -3305.863          48.000
G31  22209648.651 8 116712465.650 8      2883.685          48.000
G32  20777025.731 8 109183989.781 8     -1456.339          48.000
> 2020 04 04 10 07 15.0000000  0  9      -0.000000000000
G01  22265609.017 8 117006540.334 8      3022.316          48.000
G08  23619297.271 8 124120212.304 8     -2377.665          48.000
G10  22337947.269 8 117386680.430 8     -2037.691          48.000
G11  21116387.009 8 110967342.695 8       211.850          48.000
G14  20494940.825 8 107701625.163 8       -96.397          48.000
G22  23259417.947 8 122229037.711 8      2776.636          48.000
G27  24785025.786 8 130246148.697 8     -3305.887          48.000
G31  22209099.918 8 116709582.043 8      2883.409          48.000
G32  20777302.888 8 109185446.252 8     -1456.702          48.000
> 2020 04 04 10 07 16.0000000  0  9      -0.000000000000
G01  22265033.919 8 117003518.176 8      3021.879          48.000
G08  23619749.744 8 124122590.061 8     -2378.014          48.000
G10  22338335.048 8 117388718.219 8     -2038.011          48.000
G11  21116346.766 8 110967131.214 8       211.045          48.000
G14  20494959.198 8 107701721.718 8       -96.807          48.000
G22  23258889.560 8 122226261.022 8      2776.571          48.000
G27  24785654.853 8 130249454.458 8     -3305.911          48.000
G31  22208551.237 8 116706698.711 8      2883.134          48.000
G32  20777580.115 8 109186903.085 8     -1457.064          48.000
> 2020 04 04 10 07 17.0000000  0  9      -0.000000000000
G01  22264458.904 8 117000496.455 8      3021.442          48.000
G08  23620202.283 8 124124968.167 8     -2378.362          48.000
G10  22338722.888 8 117390756.328 8     -2038.332          48.000
G11  21116306.676 8 110966920.539 8       210.239          48.000
G14  20494977.650 8 107701818.684 8       -97.217          48.000
G22  23258361.185 8 122223484.399 8      2776.505          48.000
G27  24786283.924 8 130252760.243 8     -3305.935          48.000
G31  22208002.610 8 116703815.656 8      2882.858          48.000
G32  20777857.410 8 109188360.281 8     -1457.426          48.000
> 2020 04 04 10 07 18.0000000  0  9      -0.000000000000
G01  22263883.972 8 116997475.171 8      3021.005          48.000
G08  23620654.888 8 124127346.621 8     -2378.711          48.000
G10  22339110.789 8 117392794.757 8     -2038.652          48.000
G11  21116266.739 8 110966710.670 8       209.433          48.000
G14  20494996.180 8 107701916.059 8       -97.627          48.000
G22  23257832.823 8 122220707.841 8      2776.439          48.000
G27  24786913.000 8 130256066.053 8     -3305.959          48.000
G31  22207454.034 8 116700932.877 8      2882.582          48.000
G32  20778134.774 8 109189817.840 8     -1457.789          48.000
> 2020 04 04 10 07 19.0000000  0  9      -0.000000000000
G01  22263309.123 8 116994454.324 8      3020.569          48.000
G08  23621107.560 8 124129725.424 8     -2379.059          48.000
G10  22339498.750 8 117394833.507 8     -2038.972          48.000
G11  21116226.955 8 110966501.607 8       208.627          48.000
G14  20495014.788 8 107702013.845 8       -98.037          48.000
G22  23257304.474 8 122217931.350 8      2776.374          48.000
G27  24787542.080 8 130259371.886 8     -3305.982          48.000
G31  22206905.512 8 116698050.373 8      2882.306          48.000
G32  20778412.208 8 109191275.760 8     -1458.151          48.000
> 2020 04 04 10 07 20.0000000  0  9      -0.000000000000
G01  22262734.357 8 116991433.914 8      3020.132          48.000
G08  23621560.298 8 124132104.575 8     -2379.407          48.000
G10  22339886.773 8 117396872.577 8     -2039.292          48.000
G11  21116187.325 8 110966293.350 8       207.821          48.000
G14  20495033.474 8 107702112.041 8       -98.447          48.000
G22  23256776.137 8 122215154.924 8      2776.308          48.000
G27  24788171.165 8 130262677.743 8     -3306.006          48.000
G31  22206357.041 8 116695168.147 8      2882.030          48.000
G32  20778689.710 8 109192734.043 8     -1458.513          48.000
> 2020 04 04 10 07 21.0000000  0  9      -0.000000000000
G01  22262159.675 8 116988413.941 8      3019.694          48.000
G08  23622013.102 8 124134484.075 8     -2379.755          48.000
G10  22340274.856 8 117398911.967 8     -2039.612          48.000
G11  21116147.849 8 110966085.899 8       207.015          48.000
G14  20495052.239 8 107702210.647 8       -98.856          48.000
G22  23256247.813 8 122212378.565 8      2776.242          48.000
G27  24788800.254 8 130265983.624 8     -3306.029          48.000
G31  22205808.624 8 116692286.196 8      2881.753          48.000
G32  20778967.281 8 109194192.689 8     -1458.875          48.000
> 2020 04 04 10 07 22.0000000  0  9      -0.000000000000
G01  22261585.076 8 116985394.406 8      3019.257          48.000
G08  23622465.973 8 124136863.923 8     -2380.103          48.000
G10  22340663.001 8 117400951.678 8     -2039.932          48.000
G11  21116108.525 8 110965879.254 8       206.209          48.000
G14  20495071.081 8 107702309.662 8       -99.266          48.000
G22  23255719.501 8 122209602.271 8      2776.176          48.000
G27  24789429.348 8 130269289.528 8     -3306.052          48.000
G31  22205260.259 8 116689404.522 8      2881.477          48.000
G32  20779244.921 8 109195651.696 8     -1459.237          48.000
> 2020 04 04 10 07 23.0000000  0  9      -0.000000000000
G01  22261010.560 8 116982375.308 8      3018.820          48.000
G08  23622918.910 8 124139244.119 8     -2380.451          48.000
G10  22341051.206 8 117402991.708 8     -2040.252          48.000
G11  21116069.355 8 110965673.414 8       205.403          48.000
G14  20495090.001 8 107702409.088 8       -99.676          48.000
G22  23255191.202 8 122206826.044 8      2776.110          48.000
G27  24790058.446 8 130272595.456 8     -3306.076          48.000
G31  22204711.946 8 116686523.124 8      2881.201          48.000
G32  20779522.630 8 109197111.066 8     -1459.599          48.000
> 2020 04 04 10 07 24.0000000  0  9      -0.000000000000
G01  22260436.127 8 116979356.647 8      3018.382          48.000
G08  23623371.913 8 124141624.663 8     -2380.799          48.000
G10  22341439.473 8 117405032.059 8     -2040.572          48.000
G11  21116030.339 8 110965468.381 8       204.597          48.000
G14  20495108.999 8 107702508.924 8      -100.086          48.000
G22  23254662.915 8 122204049.882 8      2776.044          48.000
G27  24790687.548 8 130275901.407 8     -3306.099          48.000
G31  22204163.687 8 116683642.003 8      2880.924          48.000
G32  20779800.408 8 109198570.797 8     -1459.961          48.000
> 2020 04 04 10 07 25.0000000  0  9      -0.000000000000
G01  22259861.778 8 116976338.424 8      3017.945          48.000
G08  23623824.982 8 124144005.554 8     -2381.147          48.000
G10  22341827.800 8 117407072.730 8     -2040.892          48.000
G11  21115991.476 8 110965264.154 8       203.792          48.000
G14  20495128.075 8 107702609.169 8      -100.496          48.000
G22  23254134.641 8 122201273.787 8      2775.978          48.000
G27  24791316.656 8 130279207.382 8     -3306.122          48.000
G31  22203615.480 8 116680761.159 8      2880.647          48.000
G32  20780078.255 8 109200030.891 8     -1460.323          48.000
> 2020 04 04 10 07 26.0000000  0  9      -0.000000000000
G01  22259287.512 8 116973320.640 8      3017.507          48.000
G08  23624278.118 8 124146386.794 8     -2381.494          48.000
G10  22342216.188 8 117409113.721 8     -2041.212          48.000
G11  21115952.766 8 110965060.733 8       202.986          48.000
G14  20495147.229 8 107702709.825 8      -100.906          48.000
G22  23253606.380 8 122198497.758 8      2775.912          48.000
G27  24791945.767 8 130282513.379 8     -3306.144          48.000
G31  22203067.325 8 116677880.592 8      2880.371          48.000
G32  20780356.171 8 109201491.347 8     -1460.685          48.000
> 2020 04 04 10 07 27.0000000  0  9      -0.000000000000
G01  22258713.329 8 116970303.293 8      3017.069          48.000
G08  23624731.320 8 124148768.381 8     -2381.842          48.000
G10  22342604.637 8 117411155.033 8     -2041.533          48.000
G11  21115914.210 8 110964858.118 8       202.180          48.000
G14  20495166.461 8 107702810.890 8      -101.316          48.000
G22  23253078.131 8 122195721.795 8      2775.846          48.000
G27  24792574.883 8 130285819.400 8     -3306.167          48.000
G31  22202519.224 8 116675000.302 8      2880.094          48.000
G32  20780634.155 8 109202952.165 8     -1461.047          48.000
> 2020 04 04 10 07 28.0000000  0  9      -0.000000000000
G01  22258139.230 8 116967286.384 8      3016.631          48.000
G08  23625184.587 8 124151150.316 8     -2382.189          48.000
G10  22342993.147 8 117413196.665 8     -2041.853          48.000
G11  21115875.807 8 110964656.309 8       201.374          48.000
G14  20495185.771 8 107702912.365 8      -101.725          48.000
G22  23252549.895 8 122192945.899 8      2775.780          48.000
G27  24793204.003 8 130289125.444 8     -3306.190          48.000
G31  22201971.175 8 116672120.288 8      2879.817          48.000
G32  20780912.209 8 109204413.345 8     -1461.409          48.000
> 2020 04 04 10 07 29.0000000  0  9      -0.000000000000
G01  22257565.214 8 116964269.913 8      3016.193          48.000
G08  23625637.921 8 124153532.598 8     -2382.536          48.000
G10  22343381.718 8 117415238.617 8     -2042.173          48.000
G11  21115837.557 8 110964455.306 8       200.568          48.000
G14  20495205.159 8 107703014.251 8      -102.135          48.000
G22  23252021.671 8 122190170.068 8      2775.714          48.000
G27  24793833.128 8 130292431.510 8     -3306.212          48.000
G31  22201423.179 8 116669240.552 8      2879.540          48.000
G32  20781190.331 8 109205874.886 8     -1461.771          48.000
> 2020 04 04 10 07 30.0000000  0  9      -0.000000000000
G01  22256991.281 8 116961253.880 8      3015.755          48.000
G08  23626091.321 8 124155915.227 8     -2382.883          48.000
G10  22343770.350 8 117417280.889 8     -2042.493          48.000
G11  21115799.461 8 110964255.109 8       199.762          48.000
G14  20495224.625 8 107703116.546 8      -102.545          48.000
G22  23251493.460 8 122187394.304 8      2775.648          48.000
G27  24794462.257 8 130295737.599 8     -3306.235          48.000
G31  22200875.235 8 116666361.094 8      2879.263          48.000
G32  20781468.522 8 109207336.790 8     -1462.133          48.000
> 2020 04 04 10 07 31.0000000  0  9      -0.000000000000
G01  22256417.432 8 116958238.286 8      3015.317          48.000
G08  23626544.787 8 124158298.204 8     -2383.230          48.000
G10  22344159.043 8 117419323.481 8     -2042.813          48.000
G11  21115761.518 8 110964055.718 8       198.956          48.000
G14  20495244.170 8 107703219.250 8      -102.955          48.000
G22  23250965.262 8 122184618.607 8      2775.581          48.000
G27  24795091.390 8 130299043.711 8     -3306.257          48.000
G31  22200327.345 8 116663481.912 8      2878.985          48.000
G32  20781746.782 8 109208799.056 8     -1462.495          48.000
> 2020 04 04 10 07 32.0000000  0  9      -0.000000000000
G01  22255843.666 8 116955223.131 8      3014.878          48.000
G08  23626998.319 8 124160681.528 8     -2383.577          48.000
G10  22344547.797 8 117421366.394 8     -2043.133          48.000
G11  21115723.728 8 110963857.133 8       198.150          48.000
G14  20495263.792 8 107703322.365 8      -103.364          48.000
G22  23250437.076 8 122181842.976 8      2775.515          48.000
G27  24795720.527 8 130302349.845 8     -3306.279          48.000
G31  22199779.507 8 116660603.008 8      2878.708          48.000
G32  20782025.111 8 109210261.683 8     -1462.856          48.000
> 2020 04 04 10 07 33.0000000  0  9      -0.000000000000
G01  22255269.984 8 116952208.414 8      3014.440          48.000
G08  23627451.917 8 124163065.198 8     -2383.924          48.000
G10  22344936.612 8 117423409.626 8     -2043.453          48.000
G11  21115686.092 8 110963659.354 8       197.344          48.000
G14  20495283.492 8 107703425.889 8      -103.774          48.000
G22  23249908.903 8 122179067.412 8      2775.449          48.000
G27  24796349.669 8 130305656.002 8     -3306.301          48.000
G31  22199231.722 8 116657724.382 8      2878.430          48.000
G32  20782303.509 8 109211724.672 8     -1463.218          48.000
> 2020 04 04 10 07 34.0000000  0  9      -0.000000000000
G01  22254696.386 8 116949194.136 8      3014.001          48.000
G08  23627905.582 8 124165449.216 8     -2384.271          48.000
G10  22345325.487 8 117425453.179 8     -2043.773          48.000
G11  21115648.609 8 110963462.381 8       196.538          48.000
G14  20495303.270 8 107703529.823 8      -104.184          48.000
G22  23249380.742 8 122176291.914 8      2775.382          48.000
G27  24796978.815 8 130308962.180 8     -3306.323          48.000
G31  22198683.990 8 116654846.033 8      2878.153          48.000
G32  20782581.976 8 109213188.023 8     -1463.580          48.000
> 2020 04 04 10 07 35.0000000  0  9      -0.000000000000
G01  22254122.870 8 116946180.296 8      3013.562          48.000
G08  23628359.312 8 124167833.580 8     -2384.617          48.000
G10  22345714.424 8 117427497.052 8     -2044.093          48.000
G11  21115611.280 8 110963266.214 8       195.732          48.000
G14  20495323.126 8 107703634.167 8      -104.593          48.000
G22  23248852.595 8 122173516.483 8      2775.316          48.000
G27  24797607.965 8 130312268.381 8     -3306.345          48.000
G31  22198136.310 8 116651967.962 8      2877.875          48.000
G32  20782860.511 8 109214651.735 8     -1463.941          48.000
> 2020 04 04 10 07 36.0000000  0  9      -0.000000000000
G01  22253549.439 8 116943166.896 8      3013.123          48.000
G08  23628813.108 8 124170218.291 8     -2384.964          48.000
G10  22346103.422 8 117429541.246 8     -2044.413          48.000
G11  21115574.104 8 110963070.853 8       194.926          48.000
G14  20495343.060 8 107703738.921 8      -105.003          48.000
G22  23248324.460 8 122170741.118 8      2775.249          48.000
G27  24798237.120 8 130315574.604 8     -3306.367          48.000
G31  22197588.684 8 116649090.169 8      2877.597          48.000
G32  20783139.115 8 109216115.809 8     -1464.303          48.000
> 2020 04 04 10 07 37.0000000  0  9      -0.000000000000
G01  22252976.090 8 116940153.934 8      3012.684          48.000
G08  23629266.970 8 124172603.349 8     -2385.310          48.000
G10  22346492.480 8 117431585.759 8     -2044.733          48.000
G11  21115537.081 8 110962876.299 8       194.121          48.000
G14  20495363.071 8 107703844.084 8      -105.413          48.000
G22  23247796.337 8 122167965.820 8      2775.183          48.000
G27  24798866.278 8 130318880.849 8     -3306.389          48.000
G31  22197041.110 8 116646212.654 8      2877.320          48.000
G32  20783417.788 8 109217580.245 8     -1464.664          48.000
> 2020 04 04 10 07 38.0000000  0  9      -0.000000000000
G01  22252402.826 8 116937141.412 8      3012.245          48.000
G08  23629720.898 8 124174988.752 8     -2385.656          48.000
G10  22346881.599 8 117433630.593 8     -2045.054          48.000
G11  21115500.212 8 110962682.550 8       193.315          48.000
G14  20495383.161 8 107703949.657 8      -105.822          48.000
G22  23247268.228 8 122165190.589 8      2775.116          48.000
G27  24799495.441 8 130322187.116 8     -3306.410          48.000
G31  22196493.590 8 116643335.416 8      2877.042          48.000
G32  20783696.530 8 109219045.042 8     -1465.026          48.000
> 2020 04 04 10 07 39.0000000  0  9      -0.000000000000
G01  22251829.645 8 116934129.330 8      3011.806          48.000
G08  23630174.891 8 124177374.503 8     -2386.002          48.000
G10  22347270.780 8 117435675.747 8     -2045.374          48.000
G11  21115463.496 8 110962489.607 8       192.509          48.000
G14  20495403.329 8 107704055.640 8      -106.232          48.000
G22  23246740.131 8 122162415.424 8      2775.050          48.000
G27  24800124.608 8 130325493.404 8     -3306.432          48.000
G31  22195946.122 8 116640458.458 8      2876.764          48.000
G32  20783975.341 8 109220510.201 8     -1465.387          48.000
> 2020 04 04 10 07 40.0000000  0  9      -0.000000000000
G01  22251256.548 8 116931117.686 8      3011.367          48.000
G08  23630628.951 8 124179760.599 8     -2386.348          48.000
G10  22347660.021 8 117437721.221 8     -2045.694          48.000
G11  21115426.934 8 110962297.470 8       191.703          48.000
G14  20495423.575 8 107704162.032 8      -106.641          48.000
G22  23246212.047 8 122159640.327 8      2774.983          48.000
G27  24800753.779 8 130328799.714 8     -3306.453          48.000
G31  22195398.707 8 116637581.777 8      2876.485          48.000
G32  20784254.220 8 109221975.722 8     -1465.749          48.000
> 2020 04 04 10 07 41.0000000  0  9      -0.000000000000
G01  22250683.534 8 116928106.482 8      3010.927          48.000
G08  23631083.077 8 124182147.041 8     -2386.694          48.000
G10  22348049.323 8 117439767.015 8     -2046.014          48.000
G11  21115390.525 8 110962106.140 8       190.897          48.000
G14  20495443.899 8 107704268.834 8      -107.051          48.000
G22  23245683.975 8 122156865.296 8      2774.916          48.000
G27  24801382.954 8 130332106.046 8     -3306.474          48.000
G31  22194851.345 8 116634705.375 8      2876.207          48.000
G32  20784533.169 8 109223441.603 8     -1466.110          48.000
> 2020 04 04 10 07 42.0000000  0  9      -0.000000000000
G01  22250110.604 8 116925095.718 8      3010.488          48.000
G08  23631537.268 8 124184533.830 8     -2387.040          48.000
G10  22348438.686 8 117441813.130 8     -2046.334          48.000
G11  21115354.269 8 110961915.615 8       190.091          48.000
G14  20495464.300 8 107704376.045 8      -107.461          48.000
G22  23245155.916 8 122154090.332 8      2774.850          48.000
G27  24802012.133 8 130335412.399 8     -3306.495          48.000
G31  22194304.037 8 116631829.251 8      2875.929          48.000
G32  20784812.186 8 109224907.847 8     -1466.471          48.000
> 2020 04 04 10 07 43.0000000  0  9      -0.000000000000
G01  22249537.758 8 116922085.394 8      3010.048          48.000
G08  23631991.525 8 124186920.964 8     -2387.385          48.000
G10  22348828.110 8 117443859.564 8     -2046.654          48.000
G11  21115318.167 8 110961725.896 8       189.285          48.000
G14  20495484.780 8 107704483.666 8      -107.870          48.000
G22  23244627.870 8 122151315.435 8      2774.783          48.000
G27  24802641.316 8 130338718.773 8     -3306.516          48.000
G31  22193756.781 8 116628953.405 8      2875.650          48.000
G32  20785091.271 8 109226374.451 8     -1466.832          48.000
> 2020 04 04 10 07 44.0000000  0  9      -0.000000000000
G01  22248964.995 8 116919075.509 8      3009.608          48.000
G08  23632445.848 8 124189308.444 8     -2387.731          48.000
G10  22349217.595 8 117445906.319 8     -2046.974          48.000
G11  21115282.218 8 110961536.984 8       188.479          48.000
G14  20495505.338 8 107704591.697 8      -108.280          48.000
G22  23244099.837 8 122148540.605 8      2774.716          48.000
G27  24803270.503 8 130342025.168 8     -3306.537          48.000
G31  22193209.578 8 116626077.839 8      2875.372          48.000
G32  20785370.426 8 109227841.417 8     -1467.194          48.000
> 2020 04 04 10 07 45.0000000  0  9      -0.000000000000
G01  22248392.316 8 116916066.065 8      3009.168          48.000
G08  23632900.237 8 124191696.270 8     -2388.076          48.000
G10  22349607.141 8 117447953.394 8     -2047.294          48.000
G11  21115246.423 8 110961348.877 8       187.673          48.000
G14  20495525.973 8 107704700.138 8      -108.689          48.000
G22  23243571.817 8 122145765.843 8      2774.649          48.000
G27  24803899.694 8 130345331.585 8     -3306.558          48.000
G31  22192662.428 8 116623202.551 8      2875.093          48.000
G32  20785649.649 8 109229308.744 8     -1467.555          48.000
> 2020 04 04 10 07 46.0000000  0  9      -0.000000000000
G01  22247819.721 8 116913057.061 8      3008.728          48.000
G08  23633354.692 8 124194084.441 8     -2388.422          48.000
G10  22349996.748 8 117450000.789 8     -2047.614          48.000
G11  21115210.780 8 110961161.577 8       186.867          48.000
G14  20495546.687 8 107704808.987 8      -109.099          48.000
G22  23243043.809 8 122142991.147 8      2774.582          48.000
G27  24804528.889 8 130348638.022 8     -3306.578          48.000
G31  22192115.332 8 116620327.542 8      2874.814          48.000
G32  20785928.941 8 109230776.432 8     -1467.916          48.000
> 2020 04 04 10 07 47.0000000  0  9      -0.000000000000
G01  22247247.209 8 116910048.496 8      3008.288          48.000
G08  23633809.212 8 124196472.957 8     -2388.767          48.000
G10  22350386.416 8 117452048.505 8     -2047.934          48.000
G11  21115175.292 8 110960975.082 8       186.061          48.000
G14  20495567.478 8 107704918.247 8      -109.508          48.000
G22  23242515.814 8 122140216.518 8      2774.515          48.000
G27  24805158.088 8 130351944.480 8     -3306.599          48.000
G31  22191568.288 8 116617452.812 8      2874.535          48.000
G32  20786208.302 8 109232244.482 8     -1468.277          48.000
> 2020 04 04 10 07 48.0000000  0  9      -0.000000000000
G01  22246674.782 8 116907040.373 8      3007.848          48.000
G08  23634263.798 8 124198861.819 8     -2389.112          48.000
G10  22350776.145 8 117454096.540 8     -2048.254          48.000
G11  21115139.956 8 110960789.394 8       185.255          48.000
G14  20495588.347 8 107705027.916 8      -109.917          48.000
G22  23241987.832 8 122137441.957 8      2774.448          48.000
G27  24805787.292 8 130355250.959 8     -3306.619          48.000
G31  22191021.298 8 116614578.361 8      2874.256          48.000
G32  20786487.731 8 109233712.893 8     -1468.638          48.000
> 2020 04 04 10 07 49.0000000  0  9      -0.000000000000
G01  22246102.438 8 116904032.689 8      3007.407          48.000
G08  23634718.450 8 124201251.026 8     -2389.457          48.000
G10  22351165.934 8 117456144.896 8     -2048.574          48.000
G11  21115104.774 8 110960604.512 8       184.449          48.000
G14  20495609.294 8 107705137.994 8      -110.327          48.000
G22  23241459.863 8 122134667.463 8      2774.381          48.000
G27  24806416.499 8 130358557.458 8     -3306.640          48.000
G31  22190474.361 8 116611704.189 8      2873.977          48.000
G32  20786767.230 8 109235181.665 8     -1468.999          48.000
> 2020 04 04 10 07 50.0000000  0  9      -0.000000000000
G01  22245530.178 8 116901025.447 8      3006.967          48.000
G08  23635173.167 8 124203640.579 8     -2389.802          48.000
G10  22351555.785 8 117458193.572 8     -2048.894          48.000
G11  21115069.746 8 110960420.436 8       183.643          48.000
G14  20495630.320 8 107705248.482 8      -110.736          48.000
G22  23240931.906 8 122131893.036 8      2774.314          48.000
G27  24807045.709 8 130361863.978 8     -3306.660          48.000
G31  22189927.476 8 116608830.297 8      2873.698          48.000
G32  20787046.797 8 109236650.798 8     -1469.360          48.000
> 2020 04 04 10 07 51.0000000  0  9      -0.000000000000
G01  22244958.002 8 116898018.645 8      3006.526          48.000
G08  23635627.950 8 124206030.476 8     -2390.147          48.000
G10  22351945.696 8 117460242.568 8     -2049.214          48.000
G11  21115034.871 8 110960237.165 8       182.837          48.000
G14  20495651.423 8 107705359.379 8      -111.146          48.000
G22  23240403.962 8 122129118.676 8      2774.247          48.000
G27  24807674.924 8 130365170.518 8     -3306.680          48.000
G31  22189380.645 8 116605956.683 8      2873.419          48.000
G32  20787326.432 8 109238120.292 8     -1469.721          48.000
> 2020 04 04 10 07 52.0000000  0  9      -0.000000000000
G01  22244385.910 8 116895012.284 8      3006.085          48.000
G08  23636082.798 8 124208420.718 8     -2390.491          48.000
G10  22352335.669 8 117462291.884 8     -2049.535          48.000
G11  21115000.149 8 110960054.701 8       182.031          48.000
G14  20495672.604 8 107705470.686 8      -111.555          48.000
G22  23239876.031 8 122126344.384 8      2774.179          48.000
G27  24808304.143 8 130368477.079 8     -3306.700          48.000
G31  22188833.867 8 116603083.350 8      2873.140          48.000
G32  20787606.136 8 109239590.147 8     -1470.082          48.000
> 2020 04 04 10 07 53.0000000  0  9      -0.000000000000
G01  22243813.902 8 116892006.363 8      3005.644          48.000
G08  23636537.713 8 124210811.304 8     -2390.836          48.000
G10  22352725.702 8 117464341.520 8     -2049.855          48.000
G11  21114965.580 8 110959873.043 8       181.225          48.000
G14  20495693.863 8 107705582.402 8      -111.964          48.000
G22  23239348.113 8 122123570.159 8      2774.112          48.000
G27  24808933.365 8 130371783.660 8     -3306.720          48.000
G31  22188287.143 8 116600210.295 8      2872.860          48.000
G32  20787885.909 8 109241060.363 8     -1470.443          48.000
> 2020 04 04 10 07 54.0000000  0  9      -0.000000000000
G01  22243241.977 8 116889000.884 8      3005.204          48.000
G08  23636992.692 8 124213202.236 8     -2391.180          48.000
G10  22353115.796 8 117466391.477 8     -2050.175          48.000
G11  21114931.165 8 110959692.191 8       180.419          48.000
G14  20495715.199 8 107705694.528 8      -112.374          48.000
G22  23238820.208 8 122120796.002 8      2774.045          48.000
G27  24809562.592 8 130375090.260 8     -3306.740          48.000
G31  22187740.471 8 116597337.521 8      2872.581          48.000
G32  20788165.751 8 109242530.939 8     -1470.804          48.000
> 2020 04 04 10 07 55.0000000  0  9      -0.000000000000
G01  22242670.137 8 116885995.846 8      3004.762          48.000
G08  23637447.738 8 124215593.511 8     -2391.524          48.000
G10  22353505.951 8 117468441.754 8     -2050.495          48.000
G11  21114896.904 8 110959512.145 8       179.613          48.000
G14  20495736.614 8 107705807.063 8      -112.783          48.000
G22  23238292.315 8 122118021.912 8      2773.977          48.000
G27  24810191.822 8 130378396.881 8     -3306.759          48.000
G31  22187193.853 8 116594465.026 8      2872.301          48.000
G32  20788445.662 8 109244001.877 8     -1471.165          48.000
> 2020 04 04 10 07 56.0000000  0  9      -0.000000000000
G01  22242098.381 8 116882991.250 8      3004.321          48.000
G08  23637902.849 8 124217985.132 8     -2391.869          48.000
G10  22353896.167 8 117470492.351 8     -2050.815          48.000
G11  21114862.795 8 110959332.906 8       178.807          48.000
G14  20495758.107 8 107705920.007 8      -113.192          48.000
G22  23237764.436 8 122115247.890 8      2773.910          48.000
G27  24810821.055 8 130381703.522 8     -3306.779          48.000
G31  22186647.288 8 116591592.811 8      2872.021          48.000
G32  20788725.641 8 109245473.176 8     -1471.525          48.000
> 2020 04 04 10 07 57.0000000  0  9      -0.000000000000
G01  22241526.708 8 116879987.094 8      3003.880          48.000
G08  23638358.025 8 124220377.096 8     -2392.213          48.000
G10  22354286.444 8 117472543.268 8     -2051.135          48.000
G11  21114828.841 8 110959154.472 8       178.001          48.000
G14  20495779.677 8 107706033.361 8      -113.602          48.000
G22  23237236.569 8 122112473.935 8      2773.843          48.000
G27  24811450.293 8 130385010.182 8     -3306.798          48.000
G31  22186100.777 8 116588720.877 8      2871.741          48.000
G32  20789005.688 8 109246944.835 8     -1471.886          48.000
> 2020 04 04 10 07 58.0000000  0  9      -0.000000000000
G01  22240955.120 8 116876983.380 8      3003.438          48.000
G08  23638813.267 8 124222769.405 8     -2392.557          48.000
G10  22354676.782 8 117474594.505 8     -2051.455          48.000
G11  21114795.039 8 110958976.844 8       177.195          48.000
G14  20495801.326 8 107706147.124 8      -114.011          48.000
G22  23236708.715 8 122109700.048 8      2773.775          48.000
G27  24812079.534 8 130388316.862 8     -3306.818          48.000
G31  22185554.318 8 116585849.222 8      2871.461          48.000
G32  20789285.805 8 109248416.855 8     -1472.247          48.000
> 2020 04 04 10 07 59.0000000  0  9      -0.000000000000
G01  22240383.616 8 116873980.108 8      3002.997          48.000
G08  23639268.574 8 124225162.058 8     -2392.901          48.000
G10  22355067.181 8 117476646.062 8     -2051.775          48.000
G11  21114761.391 8 110958800.023 8       176.389          48.000
G14  20495823.052 8 107706261.296 8      -114.420          48.000
G22  23236180.874 8 122106926.228 8      2773.707          48.000
G27  24812708.779 8 130391623.561 8     -3306.837          48.000
G31  22185007.913 8 116582977.847 8      2871.181          48.000
G32  20789565.990 8 109249889.236 8     -1472.607          48.000
> 2020 04 04 10 08  0.0000000  0  9      -0.000000000000
G01  22239812.195 8 116870977.278 8      3002.555          48.000
G08  23639723.947 8 124227555.054 8     -2393.244          48.000
G10  22355457.641 8 117478697.939 8     -2052.095          48.000
G11  21114727.896 8 110958624.007 8       175.583          48.000
G14  20495844.856 8 107706375.877 8      -114.829          48.000
G22  23235653.046 8 122104152.477 8      2773.640          48.000
G27  24813338.028 8 130394930.280 8     -3306.856          48.000
G31  22184461.562 8 116580106.753 8      2870.901          48.000
G32  20789846.243 8 109251361.978 8     -1472.968          48.000
> 2020 04 04 10 08  1.0000000  0  9      -0.000000000000
G01  22239240.859 8 116867974.889 8      3002.113          48.000
G08  23640179.385 8 124229948.395 8     -2393.588          48.000
G10  22355848.162 8 117480750.137 8     -2052.415          48.000
G11  21114694.555 8 110958448.798 8       174.777          48.000
G14  20495866.738 8 107706490.868 8      -115.238          48.000
G22  23235125.231 8 122101378.793 8      2773.572          48.000
G27  24813967.280 8 130398237.018 8     -3306.875          48.000
G31  22183915.263 8 116577235.939 8      2870.621          48.000
G32  20790126.565 8 109252835.080 8     -1473.328          48.000
> 2020 04 04 10 08  2.0000000  0  9      -0.000000000000
G01  22238669.607 8 116864972.943 8      3001.672          48.000
G08  23640634.889 8 124232342.079 8     -2393.932          48.000
G10  22356238.743 8 117482802.655 8     -2052.735          48.000
G11  21114661.367 8 110958274.394 8       173.971          48.000
G14  20495888.698 8 107706606.268 8      -115.648          48.000
G22  23234597.429 8 122098605.177 8      2773.505          48.000
G27  24814596.536 8 130401543.775 8     -3306.894          48.000
G31  22183369.018 8 116574365.405 8      2870.340          48.000
G32  20790406.956 8 109254308.543 8     -1473.689          48.000
> 2020 04 04 10 08  3.0000000  0  9      -0.000000000000
G01  22238098.439 8 116861971.438 8      3001.229          48.000
G08  23641090.458 8 124234736.107 8     -2394.275          48.000
G10  22356629.386 8 117484855.493 8     -2053.055          48.000
G11  21114628.333 8 110958100.797 8       173.165          48.000
G14  20495910.736 8 107706722.078 8      -116.057          48.000
G22  23234069.639 8 122095831.628 8      2773.437          48.000
G27  24815225.796 8 130404850.551 8     -3306.913          48.000
G31  22182822.827 8 116571495.152 8      2870.060          48.000
G32  20790687.416 8 109255782.366 8     -1474.049          48.000
> 2020 04 04 10 08  4.0000000  0  9      -0.000000000000
G01  22237527.355 8 116858970.376 8      3000.787          48.000
G08  23641546.092 8 124237130.479 8     -2394.618          48.000
G10  22357020.089 8 117486908.651 8     -2053.375          48.000
G11  21114595.452 8 110957928.006 8       172.359          48.000
G14  20495932.851 8 107706838.296 8      -116.466          48.000
G22  23233541.863 8 122093058.148 8      2773.369          48.000
G27  24815855.059 8 130408157.346 8     -3306.931          48.000
G31  22182276.688 8 116568625.180 8      2869.779          48.000
G32  20790967.944 8 109257256.550 8     -1474.410          48.000
> 2020 04 04 10 08  5.0000000  0  9      -0.000000000000
G01  22236956.355 8 116855969.756 8      3000.345          48.000
G08  23642001.792 8 124239525.194 8     -2394.961          48.000
G10  22357410.854 8 117488962.129 8     -2053.695          48.000
G11  21114562.724 8 110957756.021 8       171.553          48.000
G14  20495955.045 8 107706954.924 8      -116.875          48.000
G22  23233014.099 8 122090284.736 8      2773.301          48.000
G27  24816484.326 8 130411464.160 8     -3306.950          48.000
G31  22181730.604 8 116565755.488 8      2869.499          48.000
G32  20791248.540 8 109258731.095 8     -1474.770          48.000
> 2020 04 04 10 08  6.0000000  0  9      -0.000000000000
G01  22236385.440 8 116852969.578 8      2999.903          48.000
G08  23642457.557 8 124241920.252 8     -2395.305          48.000
G10  22357801.679 8 117491015.927 8     -2054.015          48.000
G11  21114530.150 8 110957584.842 8       170.747          48.000
G14  20495977.316 8 107707071.961 8      -117.284          48.000
G22  23232486.349 8 122087511.391 8      2773.233          48.000
G27  24817113.597 8 130414770.993 8     -3306.968          48.000
G31  22181184.572 8 116562886.077 8      2869.218          48.000
G32  20791529.206 8 109260205.999 8     -1475.131          48.000
> 2020 04 04 10 08  7.0000000  0  9      -0.000000000000
G01  22235814.609 8 116849969.844 8      2999.460          48.000
G08  23642913.387 8 124244315.653 8     -2395.648          48.000
G10  22358192.565 8 117493070.046 8     -2054.335          48.000
G11  21114497.729 8 110957414.469 8       169.941          48.000
G14  20495999.666 8 107707189.407 8      -117.693          48.000
G22  23231958.611 8 122084738.115 8      2773.166          48.000
G27  24817742.871 8 130418077.844 8     -3306.987          48.000
G31  22180638.594 8 116560016.948 8      2868.937          48.000
G32  20791809.940 8 109261681.265 8     -1475.491          48.000
> 2020 04 04 10 08  8.0000000  0  9      -0.000000000000
G01  22235243.862 8 116846970.551 8      2999.018          48.000
G08  23643369.283 8 124246711.397 8     -2395.990          48.000
G10  22358583.512 8 117495124.484 8     -2054.655          48.000
G11  21114465.461 8 110957244.902 8       169.135          48.000
G14  20496022.093 8 107707307.262 8      -118.102          48.000
G22  23231430.887 8 122081964.907 8      2773.098          48.000
G27  24818372.148 8 130421384.714 8     -3307.005          48.000
G31  22180092.670 8 116557148.099 8      2868.656          48.000
G32  20792090.742 8 109263156.890 8     -1475.851          48.000
> 2020 04 04 10 08  9.0000000  0  9      -0.000000000000
G01  22234673.199 8 116843971.702 8      2998.575          48.000
G08  23643825.244 8 124249107.485 8     -2396.333          48.000
G10  22358974.520 8 117497179.243 8     -2054.975          48.000
G11  21114433.347 8 110957076.141 8       168.329          48.000
G14  20496044.598 8 107707425.527 8      -118.511          48.000
G22  23230903.175 8 122079191.767 8      2773.030          48.000
G27  24819001.429 8 130424691.602 8     -3307.023          48.000
G31  22179546.799 8 116554279.531 8      2868.375          48.000
G32  20792371.613 8 109264632.876 8     -1476.211          48.000
> 2020 04 04 10 08 10.0000000  0  9      -0.000000000000
G01  22234102.621 8 116840973.295 8      2998.132          48.000
G08  23644281.270 8 124251503.915 8     -2396.676          48.000
G10  22359365.589 8 117499234.322 8     -2055.295          48.000
G11  21114401.386 8 110956908.186 8       167.523          48.000
G14  20496067.180 8 107707544.200 8      -118.920          48.000
G22  23230375.476 8 122076418.695 8      2772.962          48.000
G27  24819630.713 8 130427998.509 8     -3307.041          48.000
G31  22179000.982 8 116551411.245 8      2868.094          48.000
G32  20792652.553 8 109266109.222 8     -1476.572          48.000
> 2020 04 04 10 08 11.0000000  0  9      -0.000000000000
G01  22233532.126 8 116837975.332 8      2997.689          48.000
G08  23644737.362 8 124253900.688 8     -2397.018          48.000
G10  22359756.719 8 117501289.721 8     -2055.615          48.000
G11  21114369.579 8 110956741.038 8       166.717          48.000
G14  20496089.841 8 107707663.283 8      -119.329          48.000
G22  23229847.790 8 122073645.691 8      2772.893          48.000
G27  24820260.001 8 130431305.433 8     -3307.059          48.000
G31  22178455.218 8 116548543.240 8      2867.812          48.000
G32  20792933.561 8 109267585.929 8     -1476.932          48.000
> 2020 04 04 10 08 12.0000000  0  9      -0.000000000000
G01  22232961.717 8 116834977.811 8      2997.221          48.000
G08  23645193.518 8 124256297.803 8     -2397.376          48.000
G10  22360147.910 8 117503345.440 8     -2055.960          48.000
G11  21114337.925 8 110956574.696 8       165.880          48.000
G14  20496112.580 8 107707782.775 8      -119.780          48.000
G22  23229320.118 8 122070872.756 8      2772.805          48.000
G27  24820889.293 8 130434612.376 8     -3307.085          48.000
G31  22177909.508 8 116545675.517 8      2867.507          48.000
G32  20793214.637 8 109269062.996 8     -1477.329          48.000
> 2020 04 04 10 08 13.0000000  0  9      -0.000000000000
G01  22232391.694 8 116831982.323 8      2993.651          48.000
G08  23645649.931 8 124258696.266 8     -2399.693          48.000
G10  22360539.459 8 117505403.041 8     -2059.352          48.000
G11  21114306.809 8 110956411.183 8       161.091          48.000
G14  20496135.902 8 107707905.336 8      -125.426          48.000
G22  23228792.705 8 122068101.186 8      2770.184          48.000
G27  24821518.690 8 130437919.875 8     -3308.156          48.000
G31  22177364.138 8 116542809.584 8      2864.256          48.000
G32  20793496.229 8 109270542.770 8     -1482.309          48.000
> 2020 04 04 10 08 14.0000000  0  9      -0.000000000000
G01  22231822.351 8 116828990.409 8      2990.078          48.000
G08  23646106.785 8 124261097.047 8     -2402.008          48.000
G10  22360931.654 8 117507464.036 8     -2062.743          48.000
G11  21114276.606 8 110956252.461 8       156.302          48.000
G14  20496160.300 8 107708033.544 8      -131.071          48.000
G22  23228265.792 8 122065332.242 8      2767.561          48.000
G27  24822148.292 8 130441228.450 8     -3309.225          48.000
G31  22176819.388 8 116539946.906 8      2861.004          48.000
G32  20793778.769 8 109272027.526 8     -1487.288          48.000
> 2020 04 04 10 08 15.0000000  0  9      -0.000000000000
G01  22231253.688 8 116826002.071 8      2986.505          48.000
G08  23646564.081 8 124263500.147 8     -2404.321          48.000
G10  22361324.494 8 117509528.424 8     -2066.134          48.000
G11  21114247.313 8 110956098.529 8       151.514          48.000
G14  20496185.771 8 107708167.400 8      -136.717          48.000
G22  23227739.378 8 122062565.924 8      2764.937          48.000
G27  24822778.098 8 130444538.100 8     -3310.292          48.000
G31  22176275.258 8 116537087.484 8      2857.749          48.000
G32  20794062.257 8 109273517.262 8     -1492.267          48.000
> 2020 04 04 10 08 16.0000000  0  9      -0.000000000000
G01  22230685.706 8 116823017.309 8      2982.929          48.000
G08  23647021.817 8 124265905.562 8     -2406.633          48.000
G10  22361717.980 8 117511596.204 8     -2069.523          48.000
G11  21114218.933 8 110955949.387 8       146.725          48.000
G14  20496212.318 8 107708306.902 8      -142.362          48.000
G22  23227213.465 8 122059802.233 8      2762.311          48.000
G27  24823408.109 8 130447848.822 8     -3311.357          48.000
G31  22175731.747 8 116534231.320 8      2854.493          48.000
G32  20794346.692 8 109275011.978 8     -1497.244          48.000
> 2020 04 04 10 08 17.0000000  0  9      -0.000000000000
G01  22230118.405 8 116820036.125 8      2979.352          48.000
G08  23647479.993 8 124268313.292 8     -2408.944          48.000
G10  22362112.111 8 117513667.375 8     -2072.911          48.000
G11  21114191.463 8 110955805.036 8       141.936          48.000
G14  20496239.939 8 107708452.050 8      -148.008          48.000
G22  23226688.051 8 122057041.171 8      2759.685          48.000
G27  24824038.323 8 130451160.616 8     -3312.421          48.000
G31  22175188.857 8 116531378.415 8      2851.235          48.000
G32  20794632.074 8 109276511.671 8     -1502.220          48.000
> 2020 04 04 10 08 18.0000000  0  9      -0.000000000000
G01  22229551.785 8 116817058.522 8      2975.773          48.000
G08  23647938.610 8 124270723.335 8     -2411.253          48.000
G10  22362506.888 8 117515741.935 8     -2076.297          48.000
G11  21114164.906 8 110955665.476 8       137.147          48.000
G14  20496268.634 8 107708602.846 8      -153.653          48.000
G22  23226163.139 8 122054282.739 8      2757.056          48.000
G27  24824668.741 8 130454473.479 8     -3313.483          48.000
G31  22174646.587 8 116528528.771 8      2847.975          48.000
G32  20794918.404 8 109278016.343 8     -1507.196          48.000
> 2020 04 04 10 08 19.0000000  0  9      -0.000000000000
G01  22228985.847 8 116814084.501 8      2972.192          48.000
G08  23648397.666 8 124273135.691 8     -2413.560          48.000
G10  22362902.309 8 117517819.884 8     -2079.683          48.000
G11  21114139.260 8 110955530.706 8       132.359          48.000
G14  20496298.404 8 107708759.287 8      -159.298          48.000
G22  23225638.727 8 122051526.939 8      2754.427          48.000
G27  24825299.363 8 130457787.410 8     -3314.544          48.000
G31  22174104.938 8 116525682.391 8      2844.713          48.000
G32  20795205.680 8 109279525.990 8     -1512.170          48.000
> 2020 04 04 10 08 20.0000000  0  9      -0.000000000000
G01  22228420.591 8 116811114.064 8      2968.610          48.000
G08  23648857.163 8 124275550.356 8     -2415.867          48.000
G10  22363298.374 8 117519901.220 8     -2083.067          48.000
G11  21114114.526 8 110955400.726 8       127.570          48.000
G14  20496329.248 8 107708921.375 8      -164.943          48.000
G22  23225114.816 8 122048773.772 8      2751.796          48.000
G27  24825930.187 8 130461102.407 8     -3315.603          48.000
G31  22173563.911 8 116522839.275 8      2841.450          48.000
G32  20795493.904 8 109281040.613 8     -1517.143          48.000
> 2020 04 04 10 08 21.0000000  0  9      -0.000000000000
G01  22227856.017 8 116808147.211 8      2965.027          48.000
G08  23649317.098 8 124277967.331 8     -2418.171          48.000
G10  22363695.084 8 117521985.942 8     -2086.451          48.000
G11  21114090.703 8 110955275.537 8       122.781          48.000
G14  20496361.167 8 107709089.109 8      -170.587          48.000
G22  23224591.406 8 122046023.240 8      2749.163          48.000
G27  24826561.213 8 130464418.468 8     -3316.660          48.000
G31  22173023.505 8 116519999.426 8      2838.185          48.000
G32  20795783.074 8 109282560.210 8     -1522.115          48.000
> 2020 04 04 10 08 22.0000000  0  9      -0.000000000000
G01  22227292.126 8 116805183.945 8      2961.441          48.000
G08  23649777.473 8 124280386.613 8     -2420.475          48.000
G10  22364092.438 8 117524074.049 8     -2089.833          48.000
G11  21114067.792 8 110955155.139 8       117.992          48.000
G14  20496394.160 8 107709262.489 8      -176.232          48.000
G22  23224068.498 8 122043275.343 8      2746.529          48.000
G27  24827192.442 8 130467735.592 8     -3317.715          48.000
G31  22172483.721 8 116517162.845 8      2834.918          48.000
G32  20796073.190 8 109284084.780 8     -1527.087          48.000
> 2020 04 04 10 08 23.0000000  0  9      -0.000000000000
G01  22226728.917 8 116802224.268 8      2957.854          48.000
G08  23650238.286 8 124282808.201 8     -2422.777          48.000
G10  22364490.436 8 117526165.539 8     -2093.214          48.000
G11  21114045.792 8 110955039.531 8       113.203          48.000
G14  20496428.228 8 107709441.515 8      -181.877          48.000
G22  23223546.092 8 122040530.084 8      2743.894          48.000
G27  24827823.872 8 130471053.776 8     -3318.769          48.000
G31  22171944.559 8 116514329.534 8      2831.649          48.000
G32  20796364.252 8 109285614.322 8     -1532.057          48.000
> 2020 04 04 10 08 24.0000000  0  9      -0.000000000000
G01  22226166.392 8 116799268.181 8      2954.265          48.000
G08  23650699.539 8 124285232.093 8     -2425.078          48.000
G10  22364889.078 8 117528260.413 8     -2096.594          48.000
G11  21114024.705 8 110954928.714 8       108.414          48.000
G14  20496463.369 8 107709626.186 8      -187.521          48.000
G22  23223024.188 8 122037787.463 8      2741.257          48.000
G27  24828455.504 8 130474373.020 8     -3319.821          48.000
G31  22171406.020 8 116511499.495 8      2828.379          48.000
G32  20796656.261 8 109287148.835 8     -1537.026          48.000
> 2020 04 04 10 08 25.0000000  0  9      -0.000000000000
G01  22225604.550 8 116796315.685 8      2950.675          48.000
G08  23651161.229 8 124287658.289 8     -2427.377          48.000
G10  22365288.363 8 117530358.667 8     -2099.972          48.000
G11  21114004.528 8 110954822.687 8       103.625          48.000
G14  20496499.586 8 107709816.503 8      -193.165          48.000
G22  23222502.786 8 122035047.482 8      2738.619          48.000
G27  24829087.338 8 130477693.321 8     -3320.871          48.000
G31  22170868.104 8 116508672.730 8      2825.107          48.000
G32  20796949.215 8 109288688.319 8     -1541.994          48.000
> 2020 04 04 10 08 26.0000000  0  9      -0.000000000000
G01  22225043.392 8 116793366.783 8      2947.083          48.000
G08  23651623.357 8 124290086.787 8     -2429.674          48.000
G10  22365688.291 8 117532460.302 8     -2103.350          48.000
G11  21113985.264 8 110954721.451 8        98.836          48.000
G14  20496536.876 8 107710012.466 8      -198.809          48.000
G22  23221981.887 8 122032310.142 8      2735.980          48.000
G27  24829719.372 8 130481014.678 8     -3321.920          48.000
G31  22170330.811 8 116505849.240 8      2821.833          48.000
G32  20797243.115 8 109290232.771 8     -1546.961          48.000
> 2020 04 04 10 08 27.0000000  0  9      -0.000000000000
G01  22224482.918 8 116790421.476 8      2943.489          48.000
G08  23652085.924 8 124292517.585 8     -2431.971          48.000
G10  22366088.862 8 117534565.316 8     -2106.726          48.000
G11  21113966.911 8 110954625.006 8        94.047          48.000
G14  20496575.241 8 107710214.074 8      -204.453          48.000
G22  23221461.491 8 122029575.445 8      2733.339          48.000
G27  24830351.607 8 130484337.088 8     -3322.967          48.000
G31  22169794.142 8 116503029.027 8      2818.557          48.000
G32  20797537.960 8 109291782.192 8     -1551.927          48.000
> 2020 04 04 10 08 28.0000000  0  9      -0.000000000000
G01  22223923.129 8 116787479.766 8      2939.893          48.000
G08  23652548.927 8 124294950.682 8     -2434.266          48.000
G10  22366490.077 8 117536673.709 8     -2110.101          48.000
G11  21113949.470 8 110954533.352 8        89.258          48.000
G14  20496614.680 8 107710421.327 8      -210.097          48.000
G22  23220941.598 8 122026843.393 8      2730.696          48.000
G27  24830984.042 8 130487660.551 8     -3324.012          48.000
G31  22169258.096 8 116500212.093 8      2815.279          48.000
G32  20797833.750 8 109293336.579 8     -1556.892          48.000
> 2020 04 04 10 08 29.0000000  0  9      -0.000000000000
G01  22223364.024 8 116784541.654 8      2936.296          48.000
G08  23653012.368 8 124297386.076 8     -2436.559          48.000
G10  22366891.933 8 117538785.478 8     -2113.476          48.000
G11  21113932.940 8 110954446.488 8        84.469          48.000
G14  20496655.193 8 107710634.225 8      -215.741          48.000
G22  23220422.208 8 122024113.986 8      2728.053          48.000
G27  24831616.677 8 130490985.065 8     -3325.055          48.000
G31  22168722.675 8 116497398.439 8      2812.000          48.000
G32  20798130.485 8 109294895.933 8     -1561.857          48.000
> 2020 04 04 10 08 30.0000000  0  9      -0.000000000000
G01  22222805.604 8 116781607.142 8      2932.698          48.000
G08  23653476.246 8 124299823.767 8     -2438.851          48.000
G10  22367294.432 8 117540900.622 8     -2116.849          48.000
G11  21113917.322 8 110954364.416 8        79.679          48.000
G14  20496696.780 8 107710852.768 8      -221.384          48.000
G22  23219903.322 8 122021387.225 8      2725.408          48.000
G27  24832249.511 8 130494310.628 8     -3326.097          48.000
G31  22168187.879 8 116494588.068 8      2808.719          48.000
G32  20798428.165 8 109296460.251 8     -1566.820          48.000
> 2020 04 04 10 08 31.0000000  0  9      -0.000000000000
G01  22222247.870 8 116778676.231 8      2929.097          48.000
G08  23653940.560 8 124302263.752 8     -2441.142          48.000
G10  22367697.574 8 117543019.141 8     -2120.220          48.000
G11  21113902.616 8 110954287.134 8        74.890          48.000
G14  20496739.442 8 107711076.955 8      -227.028          48.000
G22  23219384.940 8 122018663.114 8      2722.761          48.000
G27  24832882.545 8 130497637.238 8     -3327.137          48.000
G31  22167653.707 8 116491780.981 8      2805.436          48.000
G32  20798726.790 8 109298029.534 8     -1571.782          48.000
> 2020 04 04 10 08 32.0000000  0  9      -0.000000000000
G01  22221690.821 8 116775748.924 8      2925.495          48.000
G08  23654405.311 8 124304706.030 8     -2443.431          48.000
G10  22368101.357 8 117545141.034 8     -2123.591          48.000
G11  21113888.821 8 110954214.643 8        70.101          48.000
G14  20496783.177 8 107711306.788 8      -232.671          48.000
G22  23218867.063 8 122015941.652 8      2720.113          48.000
G27  24833515.778 8 130500964.893 8     -3328.176          48.000
G31  22167120.161 8 116488977.179 8      2802.152          48.000
G32  20799026.359 8 109299603.779 8     -1576.742          48.000
> 2020 04 04 10 08 33.0000000  0  9      -0.000000000000
G01  22221134.216 8 116772823.946 8      2924.720          48.000
G08  23654870.345 8 124307149.800 8     -2443.947          48.000
G10  22368505.545 8 117547265.052 8     -2124.197          48.000
G11  21113875.630 8 110954145.323 8        68.903          48.000
G14  20496827.582 8 107711540.136 8      -233.593          48.000
G22  23218349.491 8 122013221.799 8      2719.774          48.000
G27  24834149.129 8 130504293.166 8     -3328.273          48.000
G31  22166587.009 8 116486175.453 8      2801.553          48.000
G32  20799326.516 8 109301181.110 8     -1577.543          48.000
> 2020 04 04 10 08 34.0000000  0  9      -0.000000000000
G01  22220577.702 8 116769899.449 8      2924.254          48.000
G08  23655335.443 8 124309593.902 8     -2444.269          48.000
G10  22368909.793 8 117549389.390 8     -2124.502          48.000
G11  21113862.596 8 110954076.829 8        68.096          48.000
G14  20496872.069 8 107711773.916 8      -234.001          48.000
G22  23217831.939 8 122010502.045 8      2719.686          48.000
G27  24834782.479 8 130507621.439 8     -3328.267          48.000
G31  22166053.919 8 116483374.048 8      2801.247          48.000
G32  20799626.742 8 109302758.810 8     -1577.889          48.000
> 2020 04 04 10 08 35.0000000  0  9      -0.000000000000
G01  22220021.277 8 116766975.419 8      2923.788          48.000
G08  23655800.602 8 124312038.326 8     -2444.591          48.000
G10  22369314.100 8 117551514.032 8     -2124.807          48.000
G11  21113849.715 8 110954009.142 8        67.290          48.000
G14  20496916.633 8 107712008.104 8      -234.408          48.000
G22  23217314.403 8 122007782.379 8      2719.599          48.000
G27  24835415.828 8 130510949.705 8     -3328.261          48.000
G31  22165520.887 8 116480572.948 8      2800.941          48.000
G32  20799927.034 8 109304336.856 8     -1578.235          48.000
> 2020 04 04 10 08 36.0000000  0  9      -0.000000000000
G01  22219464.940 8 116764051.855 8      2923.321          48.000
G08  23656265.823 8 124314483.072 8     -2444.913          48.000
G10  22369718.464 8 117553638.979 8     -2125.111          48.000
G11  21113836.988 8 110953942.261 8        66.483          48.000
G14  20496961.275 8 107712242.698 8      -234.815          48.000
G22  23216796.883 8 122005062.801 8      2719.512          48.000
G27  24836049.176 8 130514277.966 8     -3328.255          48.000
G31  22164987.913 8 116477772.154 8      2800.635          48.000
G32  20800227.393 8 109305915.247 8     -1578.581          48.000
> 2020 04 04 10 08 37.0000000  0  9      -0.000000000000
G01  22218908.693 8 116761128.757 8      2922.855          48.000
G08  23656731.104 8 124316928.140 8     -2445.235          48.000
G10  22370122.886 8 117555764.231 8     -2125.416          48.000
G11  21113824.415 8 110953876.186 8        65.677          48.000
G14  20497005.995 8 107712477.700 8      -235.222          48.000
G22  23216279.381 8 122002343.310 8      2719.424          48.000
G27  24836682.523 8 130517606.220 8     -3328.249          48.000
G31  22164454.997 8 116474971.667 8      2800.329          48.000
G32  20800527.817 8 109307493.985 8     -1578.926          48.000
> 2020 04 04 10 08 38.0000000  0  9      -0.000000000000
G01  22218352.534 8 116758206.126 8      2922.388          48.000
G08  23657196.447 8 124319373.530 8     -2445.557          48.000
G10  22370527.367 8 117557889.787 8     -2125.720          48.000
G11  21113811.995 8 110953810.918 8        64.871          48.000
G14  20497050.791 8 107712713.108 8      -235.629          48.000
G22  23215761.895 8 121999623.906 8      2719.337          48.000
G27  24837315.868 8 130520934.468 8     -3328.242          48.000
G31  22163922.140 8 116472171.485 8      2800.023          48.000
G32  20800828.306 8 109309073.068 8     -1579.272          48.000
> 2020 04 04 10 08 39.0000000  0  9      -0.000000000000
G01  22217796.464 8 116755283.962 8      2921.921          48.000
G08  23657661.852 8 124321819.242 8     -2445.879          48.000
G10  22370931.905 8 117560015.647 8     -2126.025          48.000
G11  21113799.728 8 110953746.456 8        64.064          48.000
G14  20497095.666 8 107712948.924 8      -236.035          48.000
G22  23215244.425 8 121996904.590 8      2719.249          48.000
G27  24837949.213 8 130524262.710 8     -3328.236          48.000
G31  22163389.341 8 116469371.610 8      2799.716          48.000
G32  20801128.862 8 109310652.497 8     -1579.618          48.000
> 2020 04 04 10 08 40.0000000  0  9      -0.000000000000
G01  22217240.483 8 116752362.265 8      2921.454          48.000
G08  23658127.317 8 124324265.276 8     -2446.201          48.000
G10  22371336.501 8 117562141.813 8     -2126.330          48.000
G11  21113787.615 8 110953682.800 8        63.258          48.000
G14  20497140.617 8 107713185.146 8      -236.442          48.000
G22  23214726.973 8 121994185.362 8      2719.161          48.000
G27  24838582.556 8 130527590.945 8     -3328.229          48.000
G31  22162856.600 8 116466572.042 8      2799.410          48.000
G32  20801429.483 8 109312232.272 8     -1579.964          48.000
> 2020 04 04 10 08 41.0000000  0  9      -0.000000000000
G01  22216684.590 8 116749441.035 8      2920.987          48.000
G08  23658592.844 8 124326711.631 8     -2446.522          48.000
G10  22371741.156 8 117564268.283 8     -2126.634          48.000
G11  21113775.655 8 110953619.951 8        62.451          48.000
G14  20497185.646 8 107713421.776 8      -236.849          48.000
G22  23214209.537 8 121991466.221 8      2719.074          48.000
G27  24839215.898 8 130530919.174 8     -3328.223          48.000
G31  22162323.917 8 116463772.779 8      2799.103          48.000
G32  20801730.171 8 109313812.393 8     -1580.310          48.000
> 2020 04 04 10 08 42.0000000  0  9      -0.000000000000
G01  22216128.787 8 116746520.272 8      2920.520          48.000
G08  23659058.431 8 124329158.308 8     -2446.844          48.000
G10  22372145.868 8 117566395.057 8     -2126.939          48.000
G11  21113763.848 8 110953557.908 8        61.645          48.000
G14  20497230.753 8 107713658.812 8      -237.256          48.000
G22  23213692.117 8 121988747.167 8      2718.986          48.000
G27  24839849.239 8 130534247.396 8     -3328.216          48.000
G31  22161791.293 8 116460973.824 8      2798.797          48.000
G32  20802030.924 8 109315392.860 8     -1580.655          48.000
> 2020 04 04 10 08 43.0000000  0  9      -0.000000000000
G01  22215573.072 8 116743599.976 8      2920.053          48.000
G08  23659524.080 8 124331605.306 8     -2447.165          48.000
G10  22372550.638 8 117568522.136 8     -2127.243          48.000
G11  21113752.195 8 110953496.672 8        60.839          48.000
G14  20497275.937 8 107713896.255 8      -237.663          48.000
G22  23213174.715 8 121986028.202 8      2718.898          48.000
G27  24840482.578 8 130537575.612 8     -3328.209          48.000
G31  22161258.728 8 116458175.175 8      2798.490          48.000
G32  20802331.742 8 109316973.672 8     -1581.001          48.000
> 2020 04 04 10 08 44.0000000  0  9      -0.000000000000
G01  22215017.447 8 116740680.147 8      2919.585          48.000
G08  23659989.790 8 124334052.626 8     -2447.486          48.000
G10  22372955.466 8 117570649.520 8     -2127.548          48.000
G11  21113740.696 8 110953436.242 8        60.032          48.000
G14  20497321.198 8 107714134.105 8      -238.070          48.000
G22  23212657.329 8 121983309.324 8      2718.811          48.000
G27  24841115.916 8 130540903.821 8     -3328.202          48.000
G31  22160726.220 8 116455376.833 8      2798.183          48.000
G32  20802632.627 8 109318554.830 8     -1581.347          48.000
> 2020 04 04 10 08 45.0000000  0  9      -0.000000000000
G01  22214461.910 8 116737760.786 8      2919.118          48.000
G08  23660455.561 8 124336500.266 8     -2447.807          48.000
G10  22373360.352 8 117572777.208 8     -2127.852          48.000
G11  21113729.350 8 110953376.618 8        59.226          48.000
G14  20497366.537 8 107714372.362 8      -238.477          48.000
G22  23212139.960 8 121980590.534 8      2718.723          48.000
G27  24841749.253 8 130544232.022 8     -3328.195          48.000
G31  22160193.771 8 116452578.798 8      2797.876          48.000
G32  20802933.577 8 109320136.333 8     -1581.692          48.000
> 2020 04 04 10 08 46.0000000  0  9      -0.000000000000
G01  22213906.463 8 116734841.892 8      2918.650          48.000
G08  23660921.394 8 124338948.228 8     -2448.128          48.000
G10  22373765.296 8 117574905.201 8     -2128.157          48.000
G11  21113718.157 8 110953317.801 8        58.420          48.000
G14  20497411.953 8 107714611.025 8      -238.883          48.000
G22  23211622.607 8 121977871.832 8      2718.635          48.000
G27  24842382.588 8 130547560.217 8     -3328.188          48.000
G31  22159661.381 8 116449781.069 8      2797.569          48.000
G32  20803234.593 8 109321718.182 8     -1582.038          48.000
> 2020 04 04 10 08 47.0000000  0  9      -0.000000000000
G01  22213351.104 8 116731923.466 8      2918.183          48.000
G08  23661387.287 8 124341396.510 8     -2448.449          48.000
G10  22374170.298 8 117577033.498 8     -2128.462          48.000
G11  21113707.118 8 110953259.790 8        57.613          48.000
G14  20497457.447 8 107714850.095 8      -239.290          48.000
G22  23211105.271 8 121975153.218 8      2718.547          48.000
G27  24843015.922 8 130550888.404 8     -3328.181          48.000
G31  22159129.048 8 116446983.648 8      2797.262          48.000
G32  20803535.675 8 109323300.376 8     -1582.383          48.000
> 2020 04 04 10 08 48.0000000  0  9      -0.000000000000
G01  22212795.834 8 116729005.508 8      2917.715          48.000
G08  23661853.241 8 124343845.113 8     -2448.770          48.000
G10  22374575.358 8 117579162.100 8     -2128.766          48.000
G11  21113696.232 8 110953202.585 8        56.807          48.000
G14  20497503.017 8 107715089.572 8      -239.697          48.000
G22  23210587.952 8 121972434.692 8      2718.459          48.000
G27  24843649.255 8 130554216.584 8     -3328.174          48.000
G31  22158596.775 8 116444186.534 8      2796.955          48.000
G32  20803836.822 8 109324882.916 8     -1582.728          48.000
> 2020 04 04 10 08 49.0000000  0  9      -0.000000000000
G01  22212240.654 8 116726088.018 8      2917.247          48.000
G08  23662319.257 8 124346294.037 8     -2449.090          48.000
G10  22374980.476 8 117581291.007 8     -2129.071          48.000
G11  21113685.500 8 110953146.187 8        56.001          48.000
G14  20497548.666 8 107715329.456 8      -240.104          48.000
G22  23210070.650 8 121969716.254 8      2718.371          48.000
G27  24844282.586 8 130557544.757 8     -3328.166          48.000
G31  22158064.559 8 116441389.728 8      2796.647          48.000
G32  20804138.036 8 109326465.801 8     -1583.074          48.000
> 2020 04 04 10 08 50.0000000  0  9      -0.000000000000
G01  22211685.562 8 116723170.996 8      2916.779          48.000
G08  23662785.333 8 124348743.282 8     -2449.411          48.000
G10  22375385.652 8 117583420.218 8     -2129.375          48.000
G11  21113674.921 8 110953090.595 8        55.194          48.000
G14  20497594.392 8 107715569.746 8      -240.510          48.000
G22  23209553.365 8 121966997.904 8      2718.283          48.000
G27  24844915.916 8 130560872.922 8     -3328.158          48.000
G31  22157532.403 8 116438593.228 8      2796.340          48.000
G32  20804439.315 8 109328049.031 8     -1583.419          48.000
> 2020 04 04 10 08 51.0000000  0  9      -0.000000000000
G01  22211130.560 8 116720254.441 8      2916.311          48.000
G08  23663251.471 8 124351192.847 8     -2449.731          48.000
G10  22375790.886 8 117585549.733 8     -2129.680          48.000
G11  21113664.496 8 110953035.809 8        54.388          48.000
G14  20497640.195 8 107715810.443 8      -240.917          48.000
G22  23209036.096 8 121964279.642 8      2718.195          48.000
G27  24845549.245 8 130564201.080 8     -3328.151          48.000
G31  22157000.305 8 116435797.037 8      2796.032          48.000
G32  20804740.659 8 109329632.607 8     -1583.764          48.000
> 2020 04 04 10 08 52.0000000  0  9      -0.000000000000
G01  22210575.646 8 116717338.355 8      2915.842          48.000
G08  23663717.669 8 124353642.732 8     -2450.052          48.000
G10  22376196.178 8 117587679.553 8     -2129.984          48.000
G11  21113654.224 8 110952981.830 8        53.582          48.000
G14  20497686.075 8 107716051.547 8      -241.324          48.000
G22  23208518.844 8 121961561.468 8      2718.107          48.000
G27  24846182.571 8 130567529.229 8     -3328.143          48.000
G31  22156468.265 8 116433001.152 8      2795.725          48.000
G32  20805042.070 8 109331216.528 8     -1584.110          48.000
> 2020 04 04 10 08 53.0000000  0  9      -0.000000000000
G01  22210020.822 8 116714422.738 8      2915.374          48.000
G08  23664183.928 8 124356092.938 8     -2450.372          48.000
G10  22376601.527 8 117589809.678 8     -2130.289          48.000
G11  21113644.105 8 110952928.656 8        52.776          48.000
G14  20497732.033 8 107716293.057 8      -241.730          48.000
G22  23208001.609 8 121958843.382 8      2718.018          48.000
G27  24846815.897 8 130570857.371 8     -3328.135          48.000
G31  22155936.284 8 116430205.576 8      2795.417          48.000
G32  20805343.546 8 109332800.794 8     -1584.455          48.000
> 2020 04 04 10 08 54.0000000  0  9      -0.000000000000
G01  22209466.087 8 116711507.588 8      2914.905          48.000
G08  23664650.248 8 124358543.463 8     -2450.692          48.000
G10  22377006.935 8 117591940.107 8     -2130.593          48.000
G11  21113634.140 8 110952876.289 8        51.969          48.000
G14  20497778.068 8 107716534.974 8      -242.137          48.000
G22  23207484.390 8 121956125.385 8      2717.930          48.000
G27  24847449.221 8 130574185.505 8     -3328.127          48.000
G31  22155404.361 8 116427410.307 8      2795.109          48.000
G32  20805645.087 8 109334385.406 8     -1584.800          48.000
> 2020 04 04 10 08 55.0000000  0  9      -0.000000000000
G01  22208911.441 8 116708592.908 8      2914.437          48.000
G08  23665116.630 8 124360994.309 8     -2451.012          48.000
G10  22377412.401 8 117594070.841 8     -2130.898          48.000
G11  21113624.328 8 110952824.729 8        51.163          48.000
G14  20497824.181 8 107716777.297 8      -242.543          48.000
G22  23206967.189 8 121953407.475 8      2717.842          48.000
G27  24848082.543 8 130577513.631 8     -3328.119          48.000
G31  22154872.497 8 116424615.346 8      2794.801          48.000
G32  20805946.695 8 109335970.362 8     -1585.145          48.000
> 2020 04 04 10 08 56.0000000  0  9      -0.000000000000
G01  22208356.884 8 116705678.696 8      2913.968          48.000
G08  23665583.071 8 124363445.474 8     -2451.332          48.000
G10  22377817.924 8 117596201.879 8     -2131.202          48.000
G11  21113614.670 8 110952773.974 8        50.357          48.000
G14  20497870.371 8 107717020.027 8      -242.950          48.000
G22  23206450.004 8 121950689.654 8      2717.753          48.000
G27  24848715.864 8 130580841.749 8     -3328.111          48.000
G31  22154340.692 8 116421820.693 8      2794.493          48.000
G32  20806248.368 8 109337555.664 8     -1585.490          48.000
> 2020 04 04 10 08 57.0000000  0  9      -0.000000000000
G01  22207802.417 8 116702764.953 8      2913.499          48.000
G08  23666049.574 8 124365896.960 8     -2451.651          48.000
G10  22378223.506 8 117598333.222 8     -2131.507          48.000
G11  21113605.165 8 110952724.026 8        49.551          48.000
G14  20497916.638 8 107717263.164 8      -243.356          48.000
G22  23205932.836 8 121947971.922 8      2717.665          48.000
G27  24849349.183 8 130584169.859 8     -3328.102          48.000
G31  22153808.945 8 116419026.349 8      2794.185          48.000
G32  20806550.107 8 109339141.310 8     -1585.835          48.000
> 2020 04 04 10 08 58.0000000  0  9      -0.000000000000
G01  22207248.038 8 116699851.678 8      2913.030          48.000
G08  23666516.138 8 124368348.764 8     -2451.971          48.000
G10  22378629.145 8 117600464.869 8     -2131.811          48.000
G11  21113595.814 8 110952674.884 8        48.744          48.000
G14  20497962.983 8 107717506.707 8      -243.763          48.000
G22  23205415.685 8 121945254.278 8      2717.577          48.000
G27  24849982.501 8 130587497.960 8     -3328.094          48.000
G31  22153277.257 8 116416232.312 8      2793.877          48.000
G32  20806851.911 8 109340727.302 8     -1586.180          48.000
> 2020 04 04 10 08 59.0000000  0  9      -0.000000000000
G01  22206693.749 8 116696938.873 8      2912.561          48.000
G08  23666982.762 8 124370800.889 8     -2452.290          48.000
G10  22379034.843 8 117602596.821 8     -2132.116          48.000
G11  21113586.616 8 110952626.548 8        47.938          48.000
G14  20498009.405 8 107717750.656 8      -244.169          48.000
G22  23204898.550 8 121942536.722 8      2717.488          48.000
G27  24850615.817 8 130590826.052 8     -3328.085          48.000
G31  22152745.627 8 116413438.583 8      2793.569          48.000
G32  20807153.781 8 109342313.638 8     -1586.525          48.000
> 2020 04 04 10 09  0.0000000  0  9      -0.000000000000
G01  22206139.550 8 116694026.537 8      2912.092          48.000
G08  23667449.448 8 124373253.333 8     -2452.610          48.000
G10  22379440.598 8 117604729.077 8     -2132.420          48.000
G11  21113577.571 8 110952579.019 8        47.132          48.000
G14  20498055.904 8 107717995.012 8      -244.576          48.000
G22  23204381.433 8 121939819.255 8      2717.400          48.000
G27  24851249.131 8 130594154.137 8     -3328.077          48.000
G31  22152214.057 8 116410645.163 8      2793.260          48.000
G32  20807455.717 8 109343900.320 8     -1586.870          48.000
> 2020 04 04 10 09  1.0000000  0  9      -0.000000000000
G01  22205585.439 8 116691114.670 8      2911.623          48.000
G08  23667916.194 8 124375706.096 8     -2452.929          48.000
G10  22379846.411 8 117606861.638 8     -2132.725          48.000
G11  21113568.680 8 110952532.295 8        46.326          48.000
G14  20498102.481 8 107718239.774 8      -244.982          48.000
G22  23203864.332 8 121937101.876 8      2717.311          48.000
G27  24851882.444 8 130597482.212 8     -3328.068          48.000
G31  22151682.545 8 116407852.052 8      2792.952          48.000
G32  20807757.718 8 109345487.346 8     -1587.215          48.000
> 2020 04 04 10 09  2.0000000  0  9      -0.000000000000
G01  22205031.418 8 116688203.272 8      2911.153          48.000
G08  23668383.000 8 124378159.178 8     -2453.248          48.000
G10  22380252.283 8 117608994.503 8     -2133.029          48.000
G11  21113559.942 8 110952486.378 8        45.519          48.000
G14  20498149.135 8 107718484.943 8      -245.388          48.000
G22  23203347.249 8 121934384.586 8      2717.222          48.000
G27  24852515.755 8 130600810.278 8     -3328.059          48.000
G31  22151151.091 8 116405059.249 8      2792.643          48.000
G32  20808059.785 8 109347074.717 8     -1587.560          48.000
> 2020 04 04 10 09  3.0000000  0  9      -0.000000000000
G01  22204477.547 8 116685292.664 8      2909.945          48.000
G08  23668850.612 8 124380616.493 8     -2462.254          48.000
G10  22380657.661 8 117611124.780 8     -2126.902          48.000
G11  21113551.766 8 110952443.410 8        39.945          48.000
G14  20498195.840 8 107718730.376 8      -245.482          48.000
G22  23202830.442 8 121931668.751 8      2714.074          48.000
G27  24853149.808 8 130604142.241 8     -3336.698          48.000
G31  22150619.910 8 116402267.874 8      2789.879          48.000
G32  20808361.531 8 109348660.405 8     -1583.409          48.000
> 2020 04 04 10 09  4.0000000  0  9      -0.000000000000
G01  22203923.939 8 116682383.437 8      2908.453          48.000
G08  23669320.113 8 124383083.733 8     -2472.243          48.000
G10  22381061.737 8 117613248.209 8     -2119.960          48.000
G11  21113544.754 8 110952406.561 8        33.744          48.000
G14  20498242.557 8 107718975.879 8      -245.559          48.000
G22  23202314.313 8 121928956.479 8      2710.389          48.000
G27  24853785.666 8 130607483.695 8     -3346.187          48.000
G31  22150089.284 8 116399479.423 8      2787.048          48.000
G32  20808662.401 8 109350241.486 8     -1578.788          48.000
> 2020 04 04 10 09  5.0000000  0  9      -0.000000000000
G01  22203370.635 8 116679475.809 8      2906.748          48.000
G08  23669791.518 8 124385560.978 8     -2482.265          48.000
G10  22381464.481 8 117615364.639 8     -2112.905          48.000
G11  21113538.932 8 110952375.969 8        27.433          48.000
G14  20498289.291 8 107719221.467 8      -245.653          48.000
G22  23201798.905 8 121926247.997 8      2706.493          48.000
G27  24854423.321 8 130610834.587 8     -3355.570          48.000
G31  22149559.178 8 116396693.696 8      2784.431          48.000
G32  20808962.394 8 109351817.957 8     -1574.191          48.000
> 2020 04 04 10 09  6.0000000  0  9      -0.000000000000
G01  22202817.676 8 116676569.992 8      2904.830          48.000
G08  23670264.832 8 124388048.258 8     -2492.311          48.000
G10  22381865.872 8 117617473.960 8     -2105.742          48.000
G11  21113534.322 8 110952351.741 8        21.018          48.000
G14  20498336.044 8 107719467.158 8      -245.765          48.000
G22  23201284.259 8 121923543.516 8      2702.389          48.000
G27  24855062.750 8 130614194.806 8     -3364.842          48.000
G31  22149029.548 8 116393910.478 8      2782.029          48.000
G32  20809261.514 8 109353389.845 8     -1569.620          48.000
> 2020 04 04 10 09  7.0000000  0  9      -0.000000000000
G01  22202265.102 8 116673666.199 8      2902.701          48.000
G08  23670740.060 8 124390545.594 8     -2502.376          48.000
G10  22382265.889 8 117619576.065 8     -2098.475          48.000
G11  21113530.941 8 110952333.978 8        14.502          48.000
G14  20498382.821 8 107719712.970 8      -245.895          48.000
G22  23200770.413 8 121920843.241 8      2698.079          48.000
G27  24855703.933 8 130617564.238 8     -3373.996          48.000
G31  22148500.356 8 116391129.554 8      2779.843          48.000
G32  20809559.768 8 109354957.177 8     -1565.080          48.000
> 2020 04 04 10 09  8.0000000  0  9      -0.000000000000
G01  22201712.953 8 116670764.641 8      2900.362          48.000
G08  23671217.205 8 124393053.001 8     -2512.453          48.000
G10  22382664.515 8 117621670.853 8     -2091.108          48.000
G11  21113528.811 8 110952322.780 8         7.888          48.000
G14  20498429.624 8 107719958.921 8      -246.044          48.000
G22  23200257.407 8 121918147.379 8      2693.566          48.000
G27  24856346.846 8 130620942.763 8     -3383.025          48.000
G31  22147971.558 8 116388350.708 8      2777.875          48.000
G32  20809857.161 8 109356519.985 8     -1560.574          48.000
> 2020 04 04 10 09  9.0000000  0  9      -0.000000000000
G01  22201161.269 8 116667865.526 8      2897.814          48.000
G08  23671696.267 8 124395570.489 8     -2522.536          48.000
G10  22383061.729 8 117623758.227 8     -2083.648          48.000
G11  21113527.947 8 110952318.244 8         1.181          48.000
G14  20498476.457 8 107720205.031 8      -246.211          48.000
G22  23199745.278 8 121915456.129 8      2688.853          48.000
G27  24856991.465 8 130624330.253 8     -3391.925          48.000
G31  22147443.114 8 116385573.720 8      2776.126          48.000
G32  20810153.699 8 109358078.305 8     -1556.104          48.000
> 2020 04 04 10 09 10.0000000  0  9      -0.000000000000
G01  22200610.090 8 116664969.063 8      2895.058          48.000
G08  23672177.249 8 124398098.059 8     -2532.618          48.000
G10  22383457.516 8 117625838.096 8     -2076.098          48.000
G11  21113528.369 8 110952320.460 8        -5.616          48.000
G14  20498523.324 8 107720451.317 8      -246.397          48.000
G22  23199234.065 8 121912769.691 8      2683.943          48.000
G27  24857637.765 8 130627726.575 8     -3400.689          48.000
G31  22146914.983 8 116382798.373 8      2774.596          48.000
G32  20810449.391 8 109359632.175 8     -1551.674          48.000
> 2020 04 04 10 09 11.0000000  0  9      -0.000000000000
G01  22200059.454 8 116662075.459 8      2892.097          48.000
G08  23672660.148 8 124400635.710 8     -2542.693          48.000
G10  22383851.857 8 117627910.372 8     -2068.464          48.000
G11  21113530.092 8 110952329.516 8       -12.499          48.000
G14  20498570.228 8 107720697.800 8      -246.603          48.000
G22  23198723.805 8 121910088.261 8      2678.839          48.000
G27  24858285.719 8 130631131.592 8     -3409.312          48.000
G31  22146387.121 8 116380024.445 8      2773.285          48.000
G32  20810744.244 8 109361181.636 8     -1547.287          48.000
> 2020 04 04 10 09 12.0000000  0  9      -0.000000000000
G01  22199509.402 8 116659184.919 8      2888.931          48.000
G08  23673144.964 8 124403183.429 8     -2552.754          48.000
G10  22384244.738 8 117629974.975 8     -2060.751          48.000
G11  21113533.133 8 110952345.496 8       -19.463          48.000
G14  20498617.173 8 107720944.497 8      -246.827          48.000
G22  23198214.535 8 121907412.030 8      2673.545          48.000
G27  24858935.300 8 130634545.158 8     -3417.787          48.000
G31  22145859.488 8 116377251.718 8      2772.196          48.000
G32  20811038.267 8 109362726.733 8     -1542.946          48.000
> 2020 04 04 10 09 13.0000000  0  9      -0.000000000000
G01  22198959.972 8 116656297.646 8      2885.562          48.000
G08  23673631.692 8 124405741.200 8     -2562.796          48.000
G10  22384636.145 8 117632031.827 8     -2052.963          48.000
G11  21113537.507 8 110952368.479 8       -26.504          48.000
G14  20498664.162 8 107721191.428 8      -247.071          48.000
G22  23197706.290 8 121904741.187 8      2668.063          48.000
G27  24859586.480 8 130637967.124 8     -3426.110          48.000
G31  22145332.041 8 116374479.969 8      2771.328          48.000
G32  20811331.467 8 109364267.513 8     -1538.654          48.000
> 2020 04 04 10 09 14.0000000  0  9      -0.000000000000
G01  22198411.202 8 116653413.842 8      2881.994          48.000
G08  23674120.329 8 124408309.000 8     -2572.811          48.000
G10  22385026.063 8 117634080.856 8     -2045.107          48.000
G11  21113543.227 8 110952398.540 8       -33.618          48.000
G14  20498711.200 8 107721438.613 8      -247.334          48.000
G22  23197199.105 8 121902075.918 8      2662.398          48.000
G27  24860239.228 8 130641397.334 8     -3434.274          48.000
G31  22144804.739 8 116371708.978 8      2770.681          48.000
G32  20811623.856 8 109365804.027 8     -1534.414          48.000
> 2020 04 04 10 09 15.0000000  0  9      -0.000000000000
G01  22197863.129 8 116650533.706 8      2878.227          48.000
G08  23674610.868 8 124410886.800 8     -2582.794          48.000
G10  22385414.479 8 117636121.997 8     -2037.187          48.000
G11  21113550.308 8 110952435.750 8       -40.802          48.000
G14  20498758.290 8 107721686.071 8      -247.618          48.000
G22  23196693.016 8 121899416.405 8      2656.552          48.000
G27  24860893.514 8 130644835.627 8     -3442.275          48.000
G31  22144277.538 8 116368938.523 8      2770.256          48.000
G32  20811915.444 8 109367336.327 8     -1530.229          48.000
> 2020 04 04 10 09 16.0000000  0  9      -0.000000000000
G01  22197315.793 8 116647657.435 8      2874.264          48.000
G08  23675103.304 8 124413474.562 8     -2592.737          48.000
G10  22385801.383 8 117638155.187 8     -2029.208          48.000
G11  21113558.762 8 110952480.176 8       -48.050          48.000
G14  20498805.435 8 107721933.823 8      -247.921          48.000
G22  23196188.056 8 121896762.827 8      2650.530          48.000
G27  24861549.308 8 130648281.837 8     -3450.107          48.000
G31  22143750.397 8 116366168.383 8      2770.053          48.000
G32  20812206.240 8 109368864.472 8     -1526.102          48.000
> 2020 04 04 10 09 17.0000000  0  9      -0.000000000000
G01  22196769.228 8 116644785.225 8      2870.107          48.000
G08  23675597.628 8 124416072.246 8     -2602.635          48.000
G10  22386186.763 8 117640180.371 8     -2021.175          48.000
G11  21113568.601 8 110952531.881 8       -55.358          48.000
G14  20498852.640 8 107722181.887 8      -248.244          48.000
G22  23195684.259 8 121894115.357 8      2644.335          48.000
G27  24862206.574 8 130651735.792 8     -3457.765          48.000
G31  22143223.274 8 116363398.335 8      2770.071          48.000
G32  20812496.257 8 109370388.520 8     -1522.035          48.000
> 2020 04 04 10 09 18.0000000  0  9      -0.000000000000
G01  22196223.474 8 116641917.267 8      2865.759          48.000
G08  23676093.830 8 124418679.802 8     -2612.480          48.000
G10  22386570.610 8 117642197.499 8     -2013.095          48.000
G11  21113579.836 8 110952590.922 8       -62.722          48.000
G14  20498899.909 8 107722430.285 8      -248.587          48.000
G22  23195181.656 8 121891474.166 8      2637.972          48.000
G27  24862865.282 8 130655197.316 8     -3465.244          48.000
G31  22142696.126 8 116360628.158 8      2770.310          48.000
G32  20812785.506 8 109371908.533 8     -1518.033          48.000
> 2020 04 04 10 09 19.0000000  0  9      -0.000000000000
G01  22195678.564 8 116639053.752 8      2861.222          48.000
G08  23676591.900 8 124421297.176 8     -2622.268          48.000
G10  22386952.916 8 117644206.524 8     -2004.971          48.000
G11  21113592.478 8 110952657.354 8       -70.138          48.000
G14  20498947.245 8 107722679.036 8      -248.951          48.000
G22  23194680.280 8 121888839.421 8      2631.445          48.000
G27  24863525.395 8 130658666.227 8     -3472.538          48.000
G31  22142168.912 8 116357857.632 8      2770.770          48.000
G32  20813074.000 8 109373424.578 8     -1514.098          48.000
> 2020 04 04 10 09 20.0000000  0  9      -0.000000000000
G01  22195134.536 8 116636194.867 8      2856.499          48.000
G08  23677091.827 8 124423924.305 8     -2631.991          48.000
G10  22387333.671 8 117646207.407 8     -1996.811          48.000
G11  21113606.535 8 110952731.226 8       -77.601          48.000
G14  20498994.652 8 107722928.162 8      -249.335          48.000
G22  23194180.162 8 121886211.283 8      2624.757          48.000
G27  24864186.878 8 130662142.339 8     -3479.644          48.000
G31  22141641.589 8 116355086.536 8      2771.450          48.000
G32  20813361.752 8 109374936.721 8     -1510.232          48.000
> 2020 04 04 10 09 21.0000000  0  9      -0.000000000000
G01  22194591.424 8 116633340.796 8      2851.593          48.000
G08  23677593.597 8 124426561.123 8     -2641.643          48.000
G10  22387712.871 8 117648200.113 8     -1988.618          48.000
G11  21113622.017 8 110952812.583 8       -85.107          48.000
G14  20499042.134 8 107723177.681 8      -249.739          48.000
G22  23193681.331 8 121883589.912 8      2617.913          48.000
G27  24864849.695 8 130665625.460 8     -3486.556          48.000
G31  22141114.117 8 116352314.651 8      2772.349          48.000
G32  20813648.774 8 109376445.034 8     -1506.438          48.000
> 2020 04 04 10 09 22.0000000  0  9      -0.000000000000
G01  22194049.262 8 116630491.722 8      2846.507          48.000
G08  23678097.197 8 124429207.555 8     -2651.219          48.000
G10  22388090.509 8 117650184.613 8     -1980.399          48.000
G11  21113638.930 8 110952901.465 8       -92.651          48.000
G14  20499089.695 8 107723427.615 8      -250.164          48.000
G22  23193183.817 8 121880975.461 8      2610.918          48.000
G27  24865513.809 8 130669115.395 8     -3493.270          48.000
G31  22140586.452 8 116349541.756 8      2773.467          48.000
G32  20813935.082 8 109377949.591 8     -1502.719          48.000
> 2020 04 04 10 09 23.0000000  0  9      -0.000000000000
G01  22193508.086 8 116627647.823 8      2841.244          48.000
G08  23678602.612 8 124431863.522 8     -2660.712          48.000
G10  22388466.581 8 117652160.882 8     -1972.158          48.000
G11  21113657.283 8 110952997.908 8      -100.229          48.000
G14  20499137.338 8 107723677.984 8      -250.609          48.000
G22  23192687.648 8 121878368.079 8      2603.775          48.000
G27  24866179.181 8 130672611.943 8     -3499.781          48.000
G31  22140058.553 8 116346767.634 8      2774.803          48.000
G32  20814220.690 8 109379450.467 8     -1499.078          48.000
> 2020 04 04 10 09 24.0000000  0  9      -0.000000000000
G01  22192967.927 8 116624809.275 8      2835.807          48.000
G08  23679109.824 8 124434528.938 8     -2670.115          48.000
G10  22388841.084 8 117654128.903 8     -1963.902          48.000
G11  21113677.080 8 110953101.944 8      -107.835          48.000
G14  20499185.069 8 107723928.809 8      -251.075          48.000
G22  23192192.852 8 121875767.912 8      2596.490          48.000
G27  24866845.772 8 130676114.899 8     -3506.085          48.000
G31  22139530.380 8 116343992.069 8      2776.356          48.000
G32  20814505.612 8 109380947.743 8     -1495.517          48.000
> 2020 04 04 10 09 25.0000000  0  9      -0.000000000000
G01  22192428.820 8 116621976.249 8      2830.199          48.000
G08  23679618.817 8 124437203.710 8     -2679.424          48.000
G10  22389214.014 8 117656088.661 8     -1955.635          48.000
G11  21113698.327 8 110953213.599 8      -115.467          48.000
G14  20499232.890 8 107724180.110 8      -251.562          48.000
G22  23191699.455 8 121873175.099 8      2589.067          48.000
G27  24867513.543 8 130679624.054 8     -3512.179          48.000
G31  22139001.891 8 116341214.843 8      2778.123          48.000
G32  20814789.864 8 109382441.498 8     -1492.038          48.000
> 2020 04 04 10 09 26.0000000  0  9      -0.000000000000
G01  22191890.795 8 116619148.914 8      2824.424          48.000
G08  23680129.572 8 124439887.741 8     -2688.632          48.000
G10  22389585.370 8 117658040.150 8     -1947.364          48.000
G11  21113721.029 8 110953332.896 8      -123.118          48.000
G14  20499280.805 8 107724431.909 8      -252.070          48.000
G22  23191207.484 8 121870589.775 8      2581.511          48.000
G27  24868182.454 8 130683139.196 8     -3518.057          48.000
G31  22138473.045 8 116338435.743 8      2780.104          48.000
G32  20815073.463 8 109383931.817 8     -1488.645          48.000
> 2020 04 04 10 09 27.0000000  0  9      -0.000000000000
G01  22191353.885 8 116616327.437 8      2818.486          48.000
G08  23680642.069 8 124442580.927 8     -2697.733          48.000
G10  22389955.153 8 117659983.367 8     -1939.093          48.000
G11  21113745.188 8 110953459.853 8      -130.785          48.000
G14  20499328.820 8 107724684.226 8      -252.598          48.000
G22  23190716.962 8 121868012.073 8      2573.827          48.000
G27  24868852.462 8 130686660.106 8     -3523.716          48.000
G31  22137943.802 8 116335654.555 8      2782.298          48.000
G32  20815356.424 8 109385418.788 8     -1485.340          48.000
> 2020 04 04 10 09 28.0000000  0  9      -0.000000000000
G01  22190818.120 8 116613511.978 8      2812.387          48.000
G08  23681156.287 8 124445283.158 8     -2706.721          48.000
G10  22390323.361 8 117661918.316 8     -1930.828          48.000
G11  21113770.807 8 110953594.483 8      -138.463          48.000
G14  20499376.936 8 107724937.081 8      -253.147          48.000
G22  23190227.915 8 121865442.116 8      2566.020          48.000
G27  24869523.526 8 130690186.565 8     -3529.153          48.000
G31  22137414.122 8 116332871.069 8      2784.702          48.000
G32  20815638.765 8 109386902.498 8     -1482.125          48.000
> 2020 04 04 10 09 29.0000000  0  9      -0.000000000000
G01  22190283.531 8 116610702.696 8      2806.133          48.000
G08  23681672.205 8 124447994.318 8     -2715.590          48.000
G10  22390689.999 8 117663845.005 8     -1922.574          48.000
G11  21113797.888 8 110953736.795 8      -146.147          48.000
G14  20499425.160 8 107725190.495 8      -253.716          48.000
G22  23189740.365 8 121862880.027 8      2558.094          48.000
G27  24870195.603 8 130693718.348 8     -3534.363          48.000
G31  22136883.964 8 116330085.074 8      2787.314          48.000
G32  20815920.503 8 109388383.040 8     -1479.003          48.000
> 2020 04 04 10 09 30.0000000  0  9      -0.000000000000
G01  22189750.147 8 116607899.745 8      2799.726          48.000
G08  23682189.798 8 124450714.286 8     -2724.336          48.000
G10  22391055.067 8 117665763.448 8     -1914.337          48.000
G11  21113826.432 8 110953886.791 8      -153.833          48.000
G14  20499473.493 8 107725444.489 8      -254.307          48.000
G22  23189254.335 8 121860325.922 8      2550.054          48.000
G27  24870868.649 8 130697255.226 8     -3539.343          48.000
G31  22136353.289 8 116327296.364 8      2790.133          48.000
G32  20816201.655 8 109389860.506 8     -1475.976          48.000
> 2020 04 04 10 09 31.0000000  0  9      -0.000000000000
G01  22189217.996 8 116605103.276 8      2793.170          48.000
G08  23682709.044 8 124453442.936 8     -2732.952          48.000
G10  22391418.569 8 117667673.666 8     -1906.123          48.000
G11  21113856.437 8 110954044.473 8      -161.516          48.000
G14  20499521.941 8 107725699.084 8      -254.918          48.000
G22  23188769.844 8 121857779.909 8      2541.907          48.000
G27  24871542.622 8 130700796.968 8     -3544.090          48.000
G31  22135822.059 8 116324504.731 8      2793.157          48.000
G32  20816482.241 8 109391334.993 8     -1473.045          48.000
> 2020 04 04 10 09 32.0000000  0  9      -0.000000000000
G01  22188687.106 8 116602313.435 8      2786.470          48.000
G08  23683229.916 8 124456180.135 8     -2741.433          48.000
G10  22391780.512 8 117669575.682 8     -1897.936          48.000
G11  21113887.905 8 110954209.833 8      -169.191          48.000
G14  20499570.507 8 107725954.301 8      -255.549          48.000
G22  23188286.914 8 121855242.096 8      2533.657          48.000
G27  24872217.475 8 130704343.339 8     -3548.601          48.000
G31  22135290.234 8 116321709.974 8      2796.383          48.000
G32  20816762.279 8 109392806.599 8     -1470.214          48.000
> 2020 04 04 10 09 33.0000000  0  9      -0.000000000000
G01  22188157.505 8 116599530.364 8      2779.630          48.000
G08  23683752.389 8 124458925.745 8     -2749.773          48.000
G10  22392140.899 8 117671469.528 8     -1889.783          48.000
G11  21113920.831 8 110954382.864 8      -176.854          48.000
G14  20499619.195 8 107726210.159 8      -256.201          48.000
G22  23187805.563 8 121852712.583 8      2525.309          48.000
G27  24872893.164 8 130707894.102 8     -3552.872          48.000
G31  22134757.775 8 116318911.890 8      2799.809          48.000
G32  20817041.787 8 109394275.425 8     -1467.484          48.000
> 2020 04 04 10 09 34.0000000  0  9      -0.000000000000
G01  22187629.218 8 116596754.202 8      2772.654          48.000
G08  23684276.435 8 124461679.622 8     -2757.968          48.000
G10  22392499.738 8 117673355.240 8     -1881.668          48.000
G11  21113955.215 8 110954563.550 8      -184.501          48.000
G14  20499668.010 8 107726466.679 8      -256.874          48.000
G22  23187325.809 8 121850191.464 8      2516.869          48.000
G27  24873569.642 8 130711449.015 8     -3556.902          48.000
G31  22134224.646 8 116316110.282 8      2803.433          48.000
G32  20817320.786 8 109395741.572 8     -1464.857          48.000
> 2020 04 04 10 09 35.0000000  0  9      -0.000000000000
G01  22187102.272 8 116593985.083 8      2765.546          48.000
G08  23684802.026 8 124464441.619 8     -2766.011          48.000
G10  22392857.038 8 117675232.858 8     -1873.597          48.000
G11  21113991.051 8 110954751.872 8      -192.126          48.000
G14  20499716.954 8 107726723.883 8      -257.567          48.000
G22  23186847.670 8 121847678.829 8      2508.342          48.000
G27  24874246.864 8 130715007.836 8     -3560.686          48.000
G31  22133690.809 8 116313304.952 8      2807.251          48.000
G32  20817599.295 8 109397205.145 8     -1462.336          48.000
> 2020 04 04 10 09 36.0000000  0  9      -0.000000000000
G01  22186576.690 8 116591223.136 8      2758.310          48.000
G08  23685329.134 8 124467211.582 8     -2773.898          48.000
G10  22393212.806 8 117677102.429 8     -1865.575          48.000
G11  21114028.336 8 110954947.806 8      -199.725          48.000
G14  20499766.032 8 107726981.789 8      -258.280          48.000
G22  23186371.161 8 121845174.762 8      2499.734          48.000
G27  24874924.783 8 130718570.318 8     -3564.223          48.000
G31  22133156.227 8 116310495.708 8      2811.262          48.000
G32  20817877.334 8 109398666.251 8     -1459.922          48.000
> 2020 04 04 10 09 37.0000000  0  9      -0.000000000000
G01  22186052.497 8 116588468.487 8      2750.952          48.000
G08  23685857.726 8 124469989.351 8     -2781.624          48.000
G10  22393567.052 8 117678964.005 8     -1857.608          48.000
G11  21114067.065 8 110955151.325 8      -207.294          48.000
G14  20499815.247 8 107727240.419 8      -259.013          48.000
G22  23185896.298 8 121842679.341 8      2491.050          48.000
G27  24875603.352 8 130722136.213 8     -3567.511          48.000
G31  22132620.864 8 116307682.358 8      2815.461          48.000
G32  20818154.924 8 109400124.997 8     -1457.617          48.000
> 2020 04 04 10 09 38.0000000  0  9      -0.000000000000
G01  22185529.716 8 116585721.255 8      2743.475          48.000
G08  23686387.773 8 124472774.764 8     -2789.183          48.000
G10  22393919.788 8 117680817.644 8     -1849.700          48.000
G11  21114107.230 8 110955362.396 8      -214.828          48.000
G14  20499864.604 8 107727499.792 8      -259.767          48.000
G22  23185423.094 8 121840192.640 8      2482.296          48.000
G27  24876282.522 8 130725705.270 8     -3570.546          48.000
G31  22132084.684 8 116304864.716 8      2819.847          48.000
G32  20818432.087 8 109401581.493 8     -1455.423          48.000
> 2020 04 04 10 09 39.0000000  0  9      -0.000000000000
G01  22185008.368 8 116582981.558 8      2735.884          48.000
G08  23686919.243 8 124475567.651 8     -2796.572          48.000
G10  22394271.026 8 117682663.407 8     -1841.857          48.000
G11  21114148.825 8 110955580.981 8      -222.322          48.000
G14  20499914.107 8 107727759.929 8      -260.540          48.000
G22  23184951.562 8 121837714.727 8      2473.477          48.000
G27  24876962.245 8 130729277.235 8     -3573.328          48.000
G31  22131547.652 8 116302042.597 8      2824.416          48.000
G32  20818708.842 8 109403035.852 8     -1453.342          48.000
> 2020 04 04 10 09 40.0000000  0  9      -0.000000000000
G01  22184488.475 8 116580249.506 8      2728.184          48.000
G08  23687452.102 8 124478367.840 8     -2803.785          48.000
G10  22394620.777 8 117684501.362 8     -1834.085          48.000
G11  21114191.843 8 110955807.039 8      -229.773          48.000
G14  20499963.758 8 107728020.849 8      -261.333          48.000
G22  23184481.714 8 121835245.662 8      2464.599          48.000
G27  24877642.474 8 130732851.854 8     -3575.854          48.000
G31  22131009.733 8 116299215.818 8      2829.164          48.000
G32  20818985.212 8 109404488.186 8     -1451.375          48.000
> 2020 04 04 10 09 41.0000000  0  9      -0.000000000000
G01  22183970.058 8 116577525.207 8      2720.381          48.000
G08  23687986.316 8 124481175.152 8     -2810.818          48.000
G10  22394969.057 8 117686331.582 8     -1826.388          48.000
G11  21114236.273 8 110956040.524 8      -237.175          48.000
G14  20500013.562 8 107728282.572 8      -262.146          48.000
G22  23184013.560 8 121832785.503 8      2455.667          48.000
G27  24878323.159 8 130736428.871 8     -3578.122          48.000
G31  22130470.894 8 116296384.203 8      2834.089          48.000
G32  20819261.219 8 109405938.611 8     -1449.523          48.000
> 2020 04 04 10 09 42.0000000  0  9      -0.000000000000
G01  22183453.135 8 116574808.761 8      2712.477          48.000
G08  23688521.852 8 124483989.405 8     -2817.666          48.000
G10  22395315.880 8 117688154.145 8     -1818.772          48.000
G11  21114282.108 8 110956281.385 8      -244.524          48.000
G14  20500063.523 8 107728545.117 8      -262.978          48.000
G22  23183547.111 8 121830334.299 8      2446.689          48.000
G27  24879004.250 8 130740008.026 8     -3580.131          48.000
G31  22129931.101 8 116293547.576 8      2839.187          48.000
G32  20819536.885 8 109407387.242 8     -1447.789          48.000
> 2020 04 04 10 09 43.0000000  0  9      -0.000000000000
G01  22182937.725 8 116572100.267 8      2704.479          48.000
G08  23689058.672 8 124486810.412 8     -2824.325          48.000
G10  22395661.261 8 117689969.133 8     -1811.240          48.000
G11  21114329.335 8 110956529.567 8      -251.816          48.000
G14  20500113.644 8 107728808.504 8      -263.829          48.000
G22  23183082.375 8 121827892.095 8      2437.668          48.000
G27  24879685.700 8 130743589.060 8     -3581.880          48.000
G31  22129390.322 8 116290705.767 8      2844.454          48.000
G32  20819812.232 8 109408834.198 8     -1446.173          48.000
> 2020 04 04 10 09 44.0000000  0  9      -0.000000000000
G01  22182423.845 8 116569399.815 8      2696.392          48.000
G08  23689596.742 8 124489637.981 8     -2830.791          48.000
G10  22396005.218 8 117691776.636 8     -1803.800          48.000
G11  21114377.945 8 110956785.010 8      -259.047          48.000
G14  20500163.929 8 107729072.753 8      -264.700          48.000
G22  23182619.358 8 121825458.931 8      2428.611          48.000
G27  24880367.457 8 130747171.713 8     -3583.367          48.000
G31  22128848.525 8 116287858.607 8      2849.886          48.000
G32  20820087.282 8 109410279.599 8     -1444.677          48.000
> 2020 04 04 10 09 45.0000000  0  9      -0.000000000000
G01  22181911.513 8 116566707.494 8      2688.220          48.000
G08  23690136.023 8 124492471.919 8     -2837.059          48.000
G10  22396347.768 8 117693576.745 8     -1796.455          48.000
G11  21114427.924 8 110957047.652 8      -266.211          48.000
G14  20500214.381 8 107729337.881 8      -265.589          48.000
G22  23182158.068 8 121823034.839 8      2419.524          48.000
G27  24881049.472 8 130750755.721 8     -3584.591          48.000
G31  22128305.679 8 116285005.933 8      2855.481          48.000
G32  20820362.060 8 109411723.564 8     -1443.302          48.000
> 2020 04 04 10 09 46.0000000  0  9      -0.000000000000
G01  22181400.743 8 116564023.385 8      2679.969          48.000
G08  23690676.478 8 124495312.024 8     -2843.127          48.000
G10  22396688.929 8 117695369.558 8     -1789.210          48.000
G11  21114479.259 8 110957317.423 8      -273.306          48.000
G14  20500265.004 8 107729603.908 8      -266.497          48.000
G22  23181698.510 8 121820619.847 8      2410.413          48.000
G27  24881731.696 8 130754340.823 8     -3585.552          48.000
G31  22127761.753 8 116282147.586 8      2861.233          48.000
G32  20820636.588 8 109413166.216 8     -1442.050          48.000
> 2020 04 04 10 09 47.0000000  0  9      -0.000000000000
G01  22180891.551 8 116561347.565 8      2671.643          48.000
G08  23691218.068 8 124498158.094 8     -2848.988          48.000
G10  22397028.722 8 117697155.179 8     -1782.070          48.000
G11  21114531.938 8 110957594.253 8      -280.326          48.000
G14  20500315.802 8 107729870.852 8      -267.423          48.000
G22  23181240.687 8 121818213.976 8      2401.283          48.000
G27  24882414.077 8 130757926.753 8     -3586.249          48.000
G31  22127216.717 8 116279283.409 8      2867.140          48.000
G32  20820910.889 8 109414607.677 8     -1440.921          48.000
> 2020 04 04 10 09 48.0000000  0  9      -0.000000000000
G01  22180383.950 8 116558680.105 8      2663.248          48.000
G08  23691760.753 8 124501009.922 8     -2854.642          48.000
G10  22397367.166 8 117698933.714 8     -1775.039          48.000
G11  21114585.946 8 110957878.063 8      -287.268          48.000
G14  20500366.778 8 107730138.732 8      -268.368          48.000
G22  23180784.603 8 121815817.242 8      2392.140          48.000
G27  24883096.565 8 130761513.247 8     -3586.681          48.000
G31  22126670.544 8 116276413.251 8      2873.196          48.000
G32  20821184.987 8 109416048.071 8     -1439.917          48.000
> 2020 04 04 10 09 49.0000000  0  9      -0.000000000000
G01  22179877.952 8 116556021.073 8      2654.789          48.000
G08  23692304.494 8 124503867.298 8     -2860.082          48.000
G10  22397704.284 8 117700705.276 8     -1768.124          48.000
G11  21114641.266 8 110958168.775 8      -294.127          48.000
G14  20500417.935 8 107730407.565 8      -269.330          48.000
G22  23180330.260 8 121813429.654 8      2382.990          48.000
G27  24883779.110 8 130765100.042 8     -3586.848          48.000
G31  22126123.204 8 116273536.963 8      2879.397          48.000
G32  20821458.906 8 109417487.523 8     -1439.038          48.000
> 2020 04 04 10 09 50.0000000  0  9      -0.000000000000
G01  22179373.570 8 116553370.529 8      2646.272          48.000
G08  23692849.251 8 124506730.006 8     -2865.307          48.000
G10  22398040.096 8 117702469.982 8     -1761.327          48.000
G11  21114697.884 8 110958466.303 8      -300.899          48.000
G14  20500469.277 8 107730677.369 8      -270.310          48.000
G22  23179877.658 8 121811051.218 8      2373.839          48.000
G27  24884461.662 8 130768686.870 8     -3586.749          48.000
G31  22125574.670 8 116270654.403 8      2885.740          48.000
G32  20821732.669 8 109418926.159 8     -1438.285          48.000
> 2020 04 04 10 09 51.0000000  0  9      -0.000000000000
G01  22178870.814 8 116550728.530 8      2637.701          48.000
G08  23693394.980 8 124509597.830 8     -2870.313          48.000
G10  22398374.627 8 117704227.952 8     -1754.654          48.000
G11  21114755.782 8 110958770.558 8      -307.581          48.000
G14  20500520.808 8 107730948.162 8      -271.308          48.000
G22  23179426.797 8 121808681.930 8      2364.694          48.000
G27  24885144.170 8 130772273.468 8     -3586.386          48.000
G31  22125024.917 8 116267765.431 8      2892.220          48.000
G32  20822006.302 8 109420364.106 8     -1437.659          48.000
> 2020 04 04 10 09 52.0000000  0  9      -0.000000000000
G01  22178369.693 8 116548095.127 8      2629.082          48.000
G08  23693941.641 8 124512470.550 8     -2875.096          48.000
G10  22398707.901 8 117705979.314 8     -1748.109          48.000
G11  21114814.942 8 110959081.448 8      -314.168          48.000
G14  20500572.529 8 107731219.962 8      -272.322          48.000
G22  23178977.675 8 121806321.783 8      2355.558          48.000
G27  24885826.584 8 130775859.569 8     -3585.757          48.000
G31  22124473.917 8 116264869.913 8      2898.832          48.000
G32  20822279.827 8 109421801.491 8     -1437.161          48.000
> 2020 04 04 10 09 53.0000000  0  9      -0.000000000000
G01  22177870.217 8 116545470.364 8      2620.421          48.000
G08  23694489.191 8 124515347.940 8     -2879.655          48.000
G10  22399039.941 8 117707724.196 8     -1741.697          48.000
G11  21114875.347 8 110959398.877 8      -320.657          48.000
G14  20500624.446 8 107731492.784 8      -273.353          48.000
G22  23178530.291 8 121803970.764 8      2346.440          48.000
G27  24886508.853 8 130779444.910 8     -3584.864          48.000
G31  22123921.647 8 116261967.719 8      2905.572          48.000
G32  20822553.270 8 109423238.442 8     -1436.791          48.000
> 2020 04 04 10 09 54.0000000  0  9      -0.000000000000
G01  22177372.392 8 116542854.282 8      2611.722          48.000
G08  23695037.587 8 124518229.775 8     -2883.985          48.000
G10  22399370.774 8 117709462.733 8     -1735.421          48.000
G11  21114936.977 8 110959722.743 8      -327.044          48.000
G14  20500676.560 8 107731766.645 8      -274.401          48.000
G22  23178084.639 8 121801628.853 8      2337.344          48.000
G27  24887190.926 8 130783029.226 8     -3583.706          48.000
G31  22123368.083 8 116259058.723 8      2912.435          48.000
G32  20822826.655 8 109424675.087 8     -1436.550          48.000
> 2020 04 04 10 09 55.0000000  0  9      -0.000000000000
G01  22176876.226 8 116540246.915 8      2602.991          48.000
G08  23695586.785 8 124521115.824 8     -2888.084          48.000
G10  22399700.426 8 117711195.065 8     -1729.286          48.000
G11  21114999.812 8 110960052.944 8      -333.324          48.000
G14  20500728.875 8 107732041.563 8      -275.465          48.000
G22  23177640.716 8 121799296.024 8      2328.276          48.000
G27  24887872.755 8 130786612.252 8     -3582.286          48.000
G31  22122813.202 8 116256142.805 8      2919.416          48.000
G32  20823100.006 8 109426111.556 8     -1436.438          48.000
> 2020 04 04 10 09 56.0000000  0  9      -0.000000000000
G01  22176381.724 8 116537648.292 8      2594.234          48.000
G08  23696136.740 8 124524005.857 8     -2891.950          48.000
G10  22400028.925 8 117712921.334 8     -1723.296          48.000
G11  21115063.832 8 110960389.370 8      -339.495          48.000
G14  20500781.394 8 107732317.552 8      -276.544          48.000
G22  23177198.515 8 121796972.247 8      2319.242          48.000
G27  24888554.288 8 130790193.726 8     -3580.602          48.000
G31  22122256.981 8 116253219.848 8      2926.511          48.000
G32  20823373.348 8 109427547.978 8     -1436.455          48.000
> 2020 04 04 10 09 57.0000000  0  9      -0.000000000000
G01  22175888.891 8 116535058.438 8      2585.456          48.000
G08  23696687.409 8 124526899.639 8     -2895.581          48.000
G10  22400356.298 8 117714641.687 8     -1717.455          48.000
G11  21115129.015 8 110960731.910 8      -345.552          48.000
G14  20500834.120 8 107732594.629 8      -277.640          48.000
G22  23176758.030 8 121794657.485 8      2310.247          48.000
G27  24889235.476 8 130793773.386 8     -3578.657          48.000
G31  22121699.400 8 116250289.742 8      2933.714          48.000
G32  20823646.706 8 109428984.482 8     -1436.603          48.000
> 2020 04 04 10 09 58.0000000  0  9      -0.000000000000
G01  22175397.729 8 116532477.370 8      2576.662          48.000
G08  23697238.747 8 124529796.931 8     -2898.973          48.000
G10  22400682.573 8 117716356.275 8     -1711.766          48.000
G11  21115195.340 8 110961080.450 8      -351.492          48.000
G14  20500887.056 8 107732872.808 8      -278.750          48.000
G22  23176319.252 8 121792351.695 8      2301.299          48.000
G27  24889916.268 8 130797350.971 8     -3576.452          48.000
G31  22121140.438 8 116247352.380 8      2941.021          48.000
G32  20823920.104 8 109430421.199 8     -1436.881          48.000
> 2020 04 04 10 09 59.0000000  0  9      -0.000000000000
G01  22174908.242 8 116529905.101 8      2567.859          48.000
G08  23697790.707 8 124532697.497 8     -2902.125          48.000
G10  22401007.781 8 117718065.253 8     -1706.235          48.000
G11  21115262.784 8 110961434.870 8      -357.313          48.000
G14  20500940.204 8 107733152.105 8      -279.875          48.000
G22  23175882.172 8 121790054.828 8      2292.401          48.000
G27  24890596.617 8 130800926.221 8     -3573.988          48.000
G31  22120580.076 8 116244407.661 8      2948.427          48.000
G32  20824193.568 8 109431858.258 8     -1437.288          48.000
> 2020 04 04 10 10  0.0000000  0  9      -0.000000000000
G01  22174420.431 8 116527341.639 8      2559.050          48.000
G08  23698343.244 8 124535601.094 8     -2905.036          48.000
G10  22401331.952 8 117719768.779 8     -1700.864          48.000
G11  21115331.324 8 110961795.049 8      -363.009          48.000
G14  20500993.568 8 107733432.534 8      -281.014          48.000
G22  23175446.781 8 121787766.831 8      2283.561          48.000
G27  24891276.472 8 130804498.878 8     -3571.266          48.000
G31  22120018.295 8 116241455.489 8      2955.927          48.000
G32  20824467.121 8 109433295.791 8     -1437.826          48.000
> 2020 04 04 10 10  1.0000000  0  9      -0.000000000000
G01  22173934.296 8 116524786.985 8      2550.243          48.000
G08  23698896.311 8 124538507.480 8     -2907.703          48.000
G10  22401655.116 8 117721467.016 8     -1695.657          48.000
G11  21115400.936 8 110962160.861 8      -368.578          48.000
G14  20501047.150 8 107733714.109 8      -282.167          48.000
G22  23175013.065 8 121785487.643 8      2274.783          48.000
G27  24891955.785 8 130808068.685 8     -3568.289          48.000
G31  22119455.080 8 116238495.773 8      2963.515          48.000
G32  20824740.789 8 109434733.926 8     -1438.494          48.000
> 2020 04 04 10 10  2.0000000  0  9      -0.000000000000
G01  22173449.836 8 116522241.136 8      2541.442          48.000
G08  23699449.863 8 124541416.410 8     -2910.124          48.000
G10  22401977.305 8 117723160.129 8     -1690.617          48.000
G11  21115471.595 8 110962532.178 8      -374.018          48.000
G14  20501100.953 8 107733996.845 8      -283.334          48.000
G22  23174581.013 8 121783217.200 8      2266.073          48.000
G27  24892634.507 8 130811635.388 8     -3565.058          48.000
G31  22118890.412 8 116235528.427 8      2971.186          48.000
G32  20825014.597 8 109436172.795 8     -1439.292          48.000
> 2020 04 04 10 10  3.0000000  0  9      -0.000000000000
G01  22172967.051 8 116519704.082 8      2532.653          48.000
G08  23700003.852 8 124544327.638 8     -2912.298          48.000
G10  22402298.551 8 117724848.287 8     -1685.748          48.000
G11  21115543.277 8 110962908.868 8      -379.324          48.000
G14  20501154.979 8 107734280.754 8      -284.514          48.000
G22  23174150.612 8 121780955.430 8      2257.437          48.000
G27  24893312.591 8 130815198.734 8     -3561.575          48.000
G31  22118324.277 8 116232553.370 8      2978.935          48.000
G32  20825288.569 8 109437612.526 8     -1440.220          48.000
> 2020 04 04 10 10  4.0000000  0  9      -0.000000000000
G01  22172485.936 8 116517175.810 8      2523.881          48.000
G08  23700558.232 8 124547240.917 8     -2914.225          48.000
G10  22402618.888 8 117726531.664 8     -1681.054          48.000
G11  21115615.955 8 110963290.796 8      -384.493          48.000
G14  20501209.231 8 107734565.849 8      -285.707          48.000
G22  23173721.847 8 121778702.257 8      2248.881          48.000
G27  24893989.987 8 130818758.472 8     -3557.842          48.000
G31  22117756.660 8 116229570.527 8      2986.757          48.000
G32  20825562.730 8 109439053.250 8     -1441.277          48.000
> 2020 04 04 10 10  5.0000000  0  9      -0.000000000000
G01  22172006.488 8 116514656.298 8      2515.131          48.000
G08  23701112.954 8 124550155.998 8     -2915.902          48.000
G10  22402938.348 8 117728210.435 8     -1676.537          48.000
G11  21115689.604 8 110963677.825 8      -389.524          48.000
G14  20501263.711 8 107734852.144 8      -286.912          48.000
G22  23173294.702 8 121776457.598 8      2240.409          48.000
G27  24894666.650 8 130822314.355 8     -3553.863          48.000
G31  22117187.548 8 116226579.828 8      2994.646          48.000
G32  20825837.104 8 109440495.096 8     -1442.463          48.000
> 2020 04 04 10 10  6.0000000  0  9      -0.000000000000
G01  22171528.703 8 116512145.523 8      2506.410          48.000
G08  23701667.972 8 124553072.631 8     -2917.329          48.000
G10  22403256.965 8 117729884.779 8     -1672.200          48.000
G11  21115764.197 8 110964069.812 8      -394.412          48.000
G14  20501318.421 8 107735139.649 8      -288.129          48.000
G22  23172869.161 8 121774221.367 8      2232.027          48.000
G27  24895342.533 8 130825866.135 8     -3549.639          48.000
G31  22116616.929 8 116223581.209 8      3002.597          48.000
G32  20826111.716 8 109441938.191 8     -1443.778          48.000
> 2020 04 04 10 10  7.0000000  0  9      -0.000000000000
G01  22171052.574 8 116509643.452 8      2497.723          48.000
G08  23702223.237 8 124555990.566 8     -2918.506          48.000
G10  22403574.775 8 117731554.877 8     -1668.047          48.000
G11  21115839.706 8 110964466.616 8      -399.155          48.000
G14  20501373.365 8 107735428.378 8      -289.358          48.000
G22  23172445.206 8 121771993.470 8      2223.741          48.000
G27  24896017.589 8 130829413.570 8     -3545.173          48.000
G31  22116044.792 8 116220574.610 8      3010.605          48.000
G32  20826386.591 8 109443382.666 8     -1445.220          48.000
> 2020 04 04 10 10  8.0000000  0  9      -0.000000000000
G01  22170578.095 8 116507150.049 8      2489.075          48.000
G08  23702778.702 8 124558909.552 8     -2919.430          48.000
G10  22403891.811 8 117733220.915 8     -1664.080          48.000
G11  21115916.104 8 110964868.090 8      -403.751          48.000
G14  20501428.543 8 107735718.341 8      -290.597          48.000
G22  23172022.818 8 121769773.810 8      2215.556          48.000
G27  24896691.772 8 130832956.420 8     -3540.468          48.000
G31  22115471.126 8 116217559.977 8      3018.664          48.000
G32  20826661.752 8 109444828.647 8     -1446.790          48.000
> 2020 04 04 10 10  9.0000000  0  9      -0.000000000000
G01  22170105.257 8 116504665.273 8      2480.471          48.000
G08  23703334.319 8 124561829.336 8     -2920.103          48.000
G10  22404208.111 8 117734883.080 8     -1660.301          48.000
G11  21115993.363 8 110965274.085 8      -408.197          48.000
G14  20501483.958 8 107736009.549 8      -291.848          48.000
G22  23171601.978 8 121767562.282 8      2207.477          48.000
G27  24897365.037 8 130836494.446 8     -3535.527          48.000
G31  22114895.921 8 116214537.262 8      3026.768          48.000
G32  20826937.224 8 109446276.261 8     -1448.486          48.000
> 2020 04 04 10 10 10.0000000  0  9      -0.000000000000
G01  22169634.052 8 116502189.076 8      2471.916          48.000
G08  23703890.041 8 124564749.666 8     -2920.523          48.000
G10  22404523.711 8 117736541.563 8     -1656.715          48.000
G11  21116071.452 8 110965684.449 8      -412.490          48.000
G14  20501539.612 8 107736302.012 8      -293.108          48.000
G22  23171182.664 8 121765358.778 8      2199.509          48.000
G27  24898037.339 8 130840027.415 8     -3530.353          48.000
G31  22114319.171 8 116211506.423 8      3034.912          48.000
G32  20827213.031 8 109447725.634 8     -1450.309          48.000
> 2020 04 04 10 10 11.0000000  0  9      -0.000000000000
G01  22169164.469 8 116499721.407 8      2463.417          48.000
G08  23704445.818 8 124567670.291 8     -2920.691          48.000
G10  22404838.646 8 117738196.556 8     -1653.322          48.000
G11  21116150.344 8 110966099.029 8      -416.628          48.000
G14  20501595.506 8 107736595.740 8      -294.378          48.000
G22  23170764.856 8 121763163.184 8      2191.657          48.000
G27  24898708.636 8 130843555.095 8     -3524.950          48.000
G31  22113740.868 8 116208467.422 8      3043.090          48.000
G32  20827489.196 8 109449176.892 8     -1452.255          48.000
> 2020 04 04 10 10 12.0000000  0  9      -0.000000000000
G01  22168696.499 8 116497262.208 8      2454.978          48.000
G08  23705001.603 8 124570590.958 8     -2920.606          48.000
G10  22405152.954 8 117739848.254 8     -1650.126          48.000
G11  21116230.009 8 110966517.669 8      -420.609          48.000
G14  20501651.643 8 107736890.743 8      -295.657          48.000
G22  23170348.531 8 121760975.382 8      2183.926          48.000
G27  24899378.882 8 130847077.258 8     -3519.321          48.000
G31  22113161.005 8 116205420.228 8      3051.298          48.000
G32  20827765.744 8 109450630.158 8     -1454.326          48.000
> 2020 04 04 10 10 13.0000000  0  9      -0.000000000000
G01  22168230.128 8 116494811.415 8      2446.604          48.000
G08  23705557.348 8 124573511.413 8     -2920.269          48.000
G10  22405466.672 8 117741496.855 8     -1647.128          48.000
G11  21116310.416 8 110966940.211 8      -424.430          48.000
G14  20501708.025 8 107737187.030 8      -296.945          48.000
G22  23169933.664 8 121758795.248 8      2176.322          48.000
G27  24900048.036 8 130850593.681 8     -3513.469          48.000
G31  22112579.579 8 116202364.814 8      3059.529          48.000
G32  20828042.697 8 109452085.557 8     -1456.520          48.000
> 2020 04 04 10 10 14.0000000  0  9      -0.000000000000
G01  22167765.344 8 116492368.962 8      2438.301          48.000
G08  23706113.005 8 124576431.406 8     -2919.680          48.000
G10  22405779.840 8 117743142.558 8     -1644.331          48.000
G11  21116391.535 8 110967366.493 8      -428.091          48.000
G14  20501764.652 8 107737484.609 8      -298.241          48.000
G22  23169520.233 8 121756622.653 8      2168.849          48.000
G27  24900716.056 8 130854104.142 8     -3507.398          48.000
G31  22111996.584 8 116199301.160 8      3067.777          48.000
G32  20828320.080 8 109453543.210 8     -1458.835          48.000
> 2020 04 04 10 10 15.0000000  0  9      -0.000000000000
G01  22167302.133 8 116489934.773 8      2430.074          48.000
G08  23706668.526 8 124579350.684 8     -2918.840          48.000
G10  22406092.494 8 117744785.565 8     -1641.737          48.000
G11  21116473.335 8 110967796.354 8      -431.587          48.000
G14  20501821.527 8 107737783.488 8      -299.545          48.000
G22  23169108.210 8 121754457.463 8      2161.512          48.000
G27  24901382.900 8 130857608.425 8     -3501.113          48.000
G31  22111412.019 8 116196229.251 8      3076.037          48.000
G32  20828597.914 8 109455003.238 8     -1461.270          48.000
> 2020 04 04 10 10 16.0000000  0  9      -0.000000000000
G01  22166840.480 8 116487508.772 8      2421.928          48.000
G08  23707223.863 8 124582268.997 8     -2917.749          48.000
G10  22406404.674 8 117746426.080 8     -1639.346          48.000
G11  21116555.784 8 110968229.630 8      -434.919          48.000
G14  20501878.651 8 107738083.674 8      -300.856          48.000
G22  23168697.571 8 121752299.541 8      2154.315          48.000
G27  24902048.528 8 130861106.317 8     -3494.617          48.000
G31  22110825.881 8 116193149.079 8      3084.304          48.000
G32  20828876.223 8 109456465.762 8     -1463.825          48.000
> 2020 04 04 10 10 17.0000000  0  9      -0.000000000000
G01  22166380.368 8 116485090.875 8      2413.868          48.000
G08  23707778.969 8 124585186.094 8     -2916.409          48.000
G10  22406716.419 8 117748064.308 8     -1637.162          48.000
G11  21116638.852 8 110968666.154 8      -438.084          48.000
G14  20501936.024 8 107738385.175 8      -302.174          48.000
G22  23168288.287 8 121750148.744 8      2147.263          48.000
G27  24902712.900 8 130864597.610 8     -3487.915          48.000
G31  22110238.170 8 116190060.639 8      3092.571          48.000
G32  20829155.030 8 109457930.899 8     -1466.497          48.000
> 2020 04 04 10 10 18.0000000  0  9      -0.000000000000
G01  22165921.783 8 116482680.993 8      2405.898          48.000
G08  23708333.796 8 124588101.725 8     -2914.819          48.000
G10  22407027.768 8 117749700.455 8     -1635.186          48.000
G11  21116722.506 8 110969105.758 8      -441.080          48.000
G14  20501993.650 8 107738687.997 8      -303.498          48.000
G22  23167880.331 8 121748004.924 8      2140.361          48.000
G27  24903375.977 8 130868082.099 8     -3481.010          48.000
G31  22109648.885 8 116186963.933 8      3100.834          48.000
G32  20829434.356 8 109459398.767 8     -1469.286          48.000
> 2020 04 04 10 10 19.0000000  0  9      -0.000000000000
G01  22165464.704 8 116480279.033 8      2398.025          48.000
G08  23708888.297 8 124591015.644 8     -2912.982          48.000
G10  22407338.760 8 117751334.730 8     -1633.419          48.000
G11  21116806.714 8 110969548.273 8      -443.906          48.000
G14  20502051.527 8 107738992.146 8      -304.828          48.000
G22  23167473.674 8 121745867.929 8      2133.613          48.000
G27  24904037.722 8 130871559.584 8     -3473.908          48.000
G31  22109058.030 8 116183858.970 8      3109.086          48.000
G32  20829714.224 8 109460869.481 8     -1472.189          48.000
> 2020 04 04 10 10 20.0000000  0  9      -0.000000000000
G01  22165009.115 8 116477884.896 8      2390.252          48.000
G08  23709442.425 8 124593927.601 8     -2910.898          48.000
G10  22407649.437 8 117752967.344 8     -1631.862          48.000
G11  21116891.444 8 110969993.529 8      -446.560          48.000
G14  20502109.658 8 107739297.627 8      -306.162          48.000
G22  23167068.286 8 121743737.604 8      2127.023          48.000
G27  24904698.096 8 130875029.870 8     -3466.612          48.000
G31  22108465.606 8 116180745.763 8      3117.321          48.000
G32  20829994.655 8 109462343.155 8     -1475.205          48.000
> 2020 04 04 10 10 21.0000000  0  9      -0.000000000000
G01  22164554.994 8 116475498.481 8      2382.584          48.000
G08  23709996.133 8 124596837.353 8     -2908.570          48.000
G10  22407959.837 8 117754598.506 8     -1630.517          48.000
G11  21116976.662 8 110970441.354 8      -449.042          48.000
G14  20502168.044 8 107739604.446 8      -307.502          48.000
G22  23166664.137 8 121741613.788 8      2120.596          48.000
G27  24905357.065 8 130878492.765 8     -3459.128          48.000
G31  22107871.616 8 116177624.330 8      3125.535          48.000
G32  20830275.670 8 109463819.901 8     -1478.333          48.000
> 2020 04 04 10 10 22.0000000  0  9      -0.000000000000
G01  22164102.323 8 116473119.678 8      2375.027          48.000
G08  23710549.375 8 124599744.655 8     -2905.999          48.000
G10  22408270.001 8 117756228.430 8     -1629.385          48.000
G11  21117062.336 8 110970891.573 8      -451.350          48.000
G14  20502226.685 8 107739912.606 8      -308.846          48.000
G22  23166261.195 8 121739496.317 8      2114.335          48.000
G27  24906014.591 8 130881948.085 8     -3451.461          48.000
G31  22107276.066 8 116174494.696 8      3133.722          48.000
G32  20830557.292 8 109465299.829 8     -1481.570          48.000
> 2020 04 04 10 10 23.0000000  0  9      -0.000000000000
G01  22163651.078 8 116470748.376 8      2367.584          48.000
G08  23711102.105 8 124602649.265 8     -2903.186          48.000
G10  22408579.971 8 117757857.328 8     -1628.466          48.000
G11  21117148.432 8 110971344.013 8      -453.483          48.000
G14  20502285.582 8 107740222.111 8      -310.193          48.000
G22  23165859.428 8 121737385.022 8      2108.244          48.000
G27  24906670.642 8 130885395.647 8     -3443.614          48.000
G31  22106678.961 8 116171356.892 8      3141.876          48.000
G32  20830839.539 8 109466783.050 8     -1484.916          48.000
> 2020 04 04 10 10 24.0000000  0  9      -0.000000000000
G01  22163201.239 8 116468384.457 8      2360.261          48.000
G08  23711654.277 8 124605550.942 8     -2900.134          48.000
G10  22408889.785 8 117759485.413 8     -1627.761          48.000
G11  21117234.918 8 110971798.498 8      -455.440          48.000
G14  20502344.735 8 107740532.965 8      -311.543          48.000
G22  23165458.804 8 121735279.730 8      2102.328          48.000
G27  24907325.182 8 130888835.275 8     -3435.594          48.000
G31  22106080.308 8 116168210.952 8      3149.991          48.000
G32  20831122.434 8 109468269.669 8     -1488.367          48.000
> 2020 04 04 10 10 25.0000000  0  9      -0.000000000000
G01  22162752.782 8 116466027.799 8      2353.061          48.000
G08  23712205.845 8 124608449.449 8     -2896.845          48.000
G10  22409199.487 8 117761112.902 8     -1627.271          48.000
G11  21117321.759 8 110972254.852 8      -457.220          48.000
G14  20502404.146 8 107740845.171 8      -312.896          48.000
G22  23165059.289 8 121733180.265 8      2096.590          48.000
G27  24907978.181 8 130892266.799 8     -3427.406          48.000
G31  22105480.114 8 116165056.919 8      3158.062          48.000
G32  20831405.995 8 109469759.791 8     -1491.922          48.000
> 2020 04 04 10 10 26.0000000  0  9      -0.000000000000
G01  22162305.682 8 116463678.278 8      2345.990          48.000
G08  23712756.765 8 124611344.549 8     -2893.321          48.000
G10  22409509.115 8 117762740.008 8     -1626.997          48.000
G11  21117408.922 8 110972712.897 8      -458.823          48.000
G14  20502463.815 8 107741158.730 8      -314.250          48.000
G22  23164660.848 8 121731086.448 8      2091.034          48.000
G27  24908629.605 8 130895690.052 8     -3419.055          48.000
G31  22104878.390 8 116161894.839 8      3166.084          48.000
G32  20831690.242 8 109471253.519 8     -1495.580          48.000
> 2020 04 04 10 10 27.0000000  0  9      -0.000000000000
G01  22161859.915 8 116461335.762 8      2339.052          48.000
G08  23713306.992 8 124614236.008 8     -2889.564          48.000
G10  22409818.712 8 117764366.948 8     -1626.938          48.000
G11  21117496.374 8 110973172.457 8      -460.248          48.000
G14  20502523.741 8 107741473.645 8      -315.606          48.000
G22  23164263.447 8 121728998.095 8      2085.663          48.000
G27  24909279.425 8 130899104.875 8     -3410.545          48.000
G31  22104275.144 8 116158724.764 8      3174.051          48.000
G32  20831975.195 8 109472750.955 8     -1499.337          48.000
> 2020 04 04 10 10 28.0000000  0  9      -0.000000000000
G01  22161415.456 8 116459000.116 8      2332.250          48.000
G08  23713856.482 8 124617123.596 8     -2885.578          48.000
G10  22410128.318 8 117765993.936 8     -1627.095          48.000
G11  21117584.079 8 110973633.352 8      -461.495          48.000
G14  20502583.925 8 107741789.916 8      -316.963          48.000
G22  23163867.051 8 121726915.019 8      2080.481          48.000
G27  24909927.612 8 130902511.112 8     -3401.884          48.000
G31  22103670.388 8 116155546.752 8      3181.957          48.000
G32  20832260.872 8 109474252.197 8     -1503.191          48.000
> 2020 04 04 10 10 29.0000000  0  9      -0.000000000000
G01  22160972.278 8 116456671.203 8      2325.589          48.000
G08  23714405.193 8 124620007.083 8     -2881.364          48.000
G10  22410437.974 8 117767621.190 8     -1627.468          48.000
G11  21117672.005 8 110974095.404 8      -462.562          48.000
G14  20502644.368 8 107742107.545 8      -318.320          48.000
G22  23163471.622 8 121724837.030 8      2075.491          48.000
G27  24910574.136 8 130905908.614 8     -3393.076          48.000
G31  22103064.133 8 116152360.866 8      3189.798          48.000
G32  20832547.291 8 109475757.342 8     -1507.141          48.000
> 2020 04 04 10 10 30.0000000  0  9      -0.000000000000
G01  22160530.354 8 116454348.878 8      2319.073          48.000
G08  23714953.080 8 124622886.245 8     -2876.927          48.000
G10  22410747.722 8 117769248.925 8     -1628.057          48.000
G11  21117760.117 8 110974558.435 8      -463.451          48.000
G14  20502705.069 8 107742426.530 8      -319.677          48.000
G22  23163077.124 8 121722763.933 8      2070.695          48.000
G27  24911218.970 8 130909297.236 8     -3384.127          48.000
G31  22102456.393 8 116149167.175 8      3197.567          48.000
G32  20832834.472 8 109477266.483 8     -1511.185          48.000
> 2020 04 04 10 10 31.0000000  0  9      -0.000000000000
G01  22160089.656 8 116452032.995 8      2312.706          48.000
G08  23715500.101 8 124625760.858 8     -2872.268          48.000
G10  22411057.603 8 117770877.356 8     -1628.862          48.000
G11  21117848.381 8 110975022.264 8      -464.160          48.000
G14  20502766.028 8 107742746.872 8      -321.033          48.000
G22  23162683.520 8 121720695.534 8      2066.098          48.000
G27  24911862.089 8 130912676.841 8     -3375.042          48.000
G31  22101847.182 8 116145965.752 8      3205.260          48.000
G32  20833122.430 8 109478779.714 8     -1515.319          48.000
> 2020 04 04 10 10 32.0000000  0  9      -0.000000000000
G01  22159650.154 8 116449723.403 8      2306.492          48.000
G08  23716046.215 8 124628630.703 8     -2867.391          48.000
G10  22411367.657 8 117772506.700 8     -1629.882          48.000
G11  21117936.762 8 110975486.714 8      -464.691          48.000
G14  20502827.245 8 107743068.569 8      -322.388          48.000
G22  23162290.772 8 121718631.631 8      2061.702          48.000
G27  24912503.467 8 130916047.298 8     -3365.829          48.000
G31  22101236.514 8 116142756.676 8      3212.872          48.000
G32  20833411.184 8 109480297.123 8     -1519.541          48.000
> 2020 04 04 10 10 33.0000000  0  9      -0.000000000000
G01  22159211.821 8 116447419.947 8      2300.434          48.000
G08  23716591.381 8 124631495.563 8     -2862.299          48.000
G10  22411677.926 8 117774137.172 8     -1631.116          48.000
G11  21118025.228 8 110975951.604 8      -465.042          48.000
G14  20502888.720 8 107743391.620 8      -323.741          48.000
G22  23161898.841 8 121716572.022 8      2057.510          48.000
G27  24913143.079 8 130919408.478 8     -3356.492          48.000
G31  22100624.407 8 116139540.032 8      3220.396          48.000
G32  20833700.749 8 109481818.797 8     -1523.850          48.000
> 2020 04 04 10 10 34.0000000  0  9      -0.000000000000
G01  22158774.625 8 116445122.469 8      2294.536          48.000
G08  23717135.557 8 124634355.226 8     -2856.997          48.000
G10  22411988.450 8 117775768.985 8     -1632.565          48.000
G11  21118113.744 8 110976416.755 8      -465.214          48.000
G14  20502950.451 8 107743716.023 8      -325.091          48.000
G22  23161507.688 8 121714516.503 8      2053.524          48.000
G27  24913780.904 8 130922760.262 8     -3347.038          48.000
G31  22100010.876 8 116136315.909 8      3227.829          48.000
G32  20833991.142 8 109483344.821 8     -1528.241          48.000
> 2020 04 04 10 10 35.0000000  0  9      -0.000000000000
G01  22158338.535 8 116442830.807 8      2288.803          48.000
G08  23717678.705 8 124637209.483 8     -2851.486          48.000
G10  22412299.270 8 117777402.354 8     -1634.228          48.000
G11  21118202.275 8 110976881.990 8      -465.208          48.000
G14  20503012.440 8 107744041.775 8      -326.438          48.000
G22  23161117.274 8 121712464.866 8      2049.746          48.000
G27  24914416.918 8 130926102.536 8     -3337.473          48.000
G31  22099395.940 8 116133084.401 8      3235.164          48.000
G32  20834282.378 8 109484875.278 8     -1532.714          48.000
> 2020 04 04 10 10 36.0000000  0  9      -0.000000000000
G01  22157903.521 8 116440544.796 8      2283.236          48.000
G08  23718220.785 8 124640058.127 8     -2845.772          48.000
G10  22412610.427 8 117779037.492 8     -1636.103          48.000
G11  21118290.788 8 110977347.130 8      -465.024          48.000
G14  20503074.684 8 107744368.871 8      -327.782          48.000
G22  23160727.559 8 121710416.901 8      2046.181          48.000
G27  24915051.103 8 130929435.192 8     -3327.802          48.000
G31  22098779.617 8 116129845.609 8      3242.397          48.000
G32  20834574.473 8 109486410.247 8     -1537.264          48.000
> 2020 04 04 10 10 37.0000000  0  9      -0.000000000000
G01  22157469.551 8 116438264.266 8      2277.840          48.000
G08  23718761.758 8 124642900.957 8     -2839.858          48.000
G10  22412921.961 8 117780674.610 8     -1638.189          48.000
G11  21118379.249 8 110977811.997 8      -464.662          48.000
G14  20503137.184 8 107744697.310 8      -329.121          48.000
G22  23160338.502 8 121708372.394 8      2042.828          48.000
G27  24915683.437 8 130932758.128 8     -3318.033          48.000
G31  22098161.929 8 116126599.636 8      3249.524          48.000
G32  20834867.441 8 109487949.804 8     -1541.890          48.000
> 2020 04 04 10 10 38.0000000  0  9      -0.000000000000
G01  22157036.590 8 116435989.046 8      2272.618          48.000
G08  23719301.587 8 124645737.774 8     -2833.749          48.000
G10  22413233.911 8 117782313.920 8     -1640.486          48.000
G11  21118467.625 8 110978276.414 8      -464.124          48.000
G14  20503199.938 8 107745027.086 8      -330.456          48.000
G22  23159950.062 8 121706331.133 8      2039.692          48.000
G27  24916313.904 8 130936071.248 8     -3308.172          48.000
G31  22097542.894 8 116123346.593 8      3256.538          48.000
G32  20835161.297 8 109489494.023 8     -1546.589          48.000
> 2020 04 04 10 10 39.0000000  0  9      -0.000000000000
G01  22156604.606 8 116433718.960 8      2267.572          48.000
G08  23719840.236 8 124648568.386 8     -2827.447          48.000
G10  22413546.319 8 117783955.632 8     -1642.992          48.000
G11  21118555.882 8 110978740.205 8      -463.410          48.000
G14  20503262.946 8 107745358.193 8      -331.785          48.000
G22  23159562.199 8 121704292.900 8      2036.772          48.000
G27  24916942.486 8 130939374.463 8     -3298.225          48.000
G31  22096922.536 8 116120086.593 8      3263.436          48.000
G32  20835456.053 8 109491042.976 8     -1551.357          48.000
> 2020 04 04 10 10 40.0000000  0  9      -0.000000000000
G01  22156173.566 8 116431453.829 8      2262.706          48.000
G08  23720377.667 8 124651392.602 8     -2820.958          48.000
G10  22413859.223 8 117785599.953 8     -1645.705          48.000
G11  21118643.986 8 110979203.194 8      -462.521          48.000
G14  20503326.206 8 107745690.628 8      -333.109          48.000
G22  23159174.870 8 121702257.476 8      2034.073          48.000
G27  24917569.168 8 130942667.690 8     -3288.198          48.000
G31  22096300.877 8 116116819.756 8      3270.212          48.000
G32  20835751.723 8 109492596.731 8     -1556.193          48.000
> 2020 04 04 10 10 41.0000000  0  9      -0.000000000000
G01  22155743.434 8 116429193.474 8      2258.023          48.000
G08  23720913.846 8 124654210.236 8     -2814.286          48.000
G10  22414172.663 8 117787247.091 8     -1648.624          48.000
G11  21118731.904 8 110979665.208 8      -461.458          48.000
G14  20503389.718 8 107746024.383 8      -334.426          48.000
G22  23158788.034 8 121700224.642 8      2031.594          48.000
G27  24918193.934 8 130945950.854 8     -3278.098          48.000
G31  22095677.940 8 116113546.205 8      3276.862          48.000
G32  20836048.319 8 109494155.355 8     -1561.093          48.000
> 2020 04 04 10 10 42.0000000  0  9      -0.000000000000
G01  22155314.176 8 116426937.709 8      2253.526          48.000
G08  23721448.738 8 124657021.109 8     -2807.435          48.000
G10  22414486.679 8 117788897.249 8     -1651.748          48.000
G11  21118819.604 8 110980126.072 8      -460.223          48.000
G14  20503453.479 8 107746359.451 8      -335.737          48.000
G22  23158401.648 8 121698194.175 8      2029.337          48.000
G27  24918816.772 8 130949223.883 8     -3267.931          48.000
G31  22095053.751 8 116110266.069 8      3283.382          48.000
G32  20836345.854 8 109495718.909 8     -1566.053          48.000
> 2020 04 04 10 10 43.0000000  0  9      -0.000000000000
G01  22154885.756 8 116424686.348 8      2249.216          48.000
G08  23721982.310 8 124659825.044 8     -2800.410          48.000
G10  22414801.308 8 117790550.633 8     -1655.074          48.000
G11  21118907.052 8 110980585.615 8      -458.816          48.000
G14  20503517.489 8 107746695.827 8      -337.040          48.000
G22  23158015.671 8 121696165.854 8      2027.305          48.000
G27  24919437.669 8 130952486.716 8     -3257.705          48.000
G31  22094428.333 8 116106979.480 8      3289.767          48.000
G32  20836644.338 8 109497287.453 8     -1571.073          48.000
> 2020 04 04 10 10 44.0000000  0  9      -0.000000000000
G01  22154458.137 8 116422439.201 8      2245.097          48.000
G08  23722514.528 8 124662621.868 8     -2793.216          48.000
G10  22415116.588 8 117792207.443 8     -1658.600          48.000
G11  21118994.216 8 110981043.666 8      -457.239          48.000
G14  20503581.747 8 107747033.501 8      -338.334          48.000
G22  23157630.059 8 121694139.452 8      2025.498          48.000
G27  24920056.615 8 130955739.294 8     -3247.425          48.000
G31  22093801.713 8 116103686.576 8      3296.012          48.000
G32  20836943.783 8 109498861.044 8     -1576.147          48.000
> 2020 04 04 10 10 45.0000000  0  9      -0.000000000000
G01  22154031.284 8 116420196.077 8      2241.171          48.000
G08  23723045.363 8 124665411.416 8     -2785.857          48.000
G10  22415432.559 8 117793867.879 8     -1662.324          48.000
G11  21119081.064 8 110981500.056 8      -455.494          48.000
G14  20503646.249 8 107747372.466 8      -339.621          48.000
G22  23157244.770 8 121692114.744 8      2023.917          48.000
G27  24920673.601 8 130958981.569 8     -3237.098          48.000
G31  22093173.919 8 116100387.499 8      3302.113          48.000
G32  20837244.198 8 109500439.736 8     -1581.274          48.000
> 2020 04 04 10 10 46.0000000  0  9      -0.000000000000
G01  22153605.160 8 116417956.781 8      2237.441          48.000
G08  23723574.781 8 124668193.526 8     -2778.339          48.000
G10  22415749.257 8 117795532.137 8     -1666.245          48.000
G11  21119167.564 8 110981954.617 8      -453.582          48.000
G14  20503710.996 8 107747712.712 8      -340.898          48.000
G22  23156859.759 8 121690091.504 8      2022.563          48.000
G27  24921288.617 8 130962213.497 8     -3226.732          48.000
G31  22092544.978 8 116097082.393 8      3308.066          48.000
G32  20837545.594 8 109502023.579 8     -1586.450          48.000
> 2020 04 04 10 10 47.0000000  0  9      -0.000000000000
G01  22153179.727 8 116415721.118 8      2233.907          48.000
G08  23724102.754 8 124670968.040 8     -2770.667          48.000
G10  22416066.720 8 117797200.413 8     -1670.360          48.000
G11  21119253.685 8 110982407.183 8      -451.505          48.000
G14  20503775.985 8 107748054.231 8      -342.165          48.000
G22  23156474.985 8 121688069.503 8      2021.437          48.000
G27  24921901.658 8 130965435.042 8     -3216.332          48.000
G31  22091914.918 8 116093771.410 8      3313.868          48.000
G32  20837847.979 8 109503612.622 8     -1591.671          48.000
> 2020 04 04 10 10 48.0000000  0  9      -0.000000000000
G01  22152754.948 8 116413488.889 8      2230.573          48.000
G08  23724629.253 8 124673734.806 8     -2762.846          48.000
G10  22416384.984 8 117798872.899 8     -1674.665          48.000
G11  21119339.394 8 110982857.590 8      -449.264          48.000
G14  20503841.214 8 107748397.013 8      -343.423          48.000
G22  23156090.403 8 121686048.515 8      2020.540          48.000
G27  24922512.717 8 130968646.172 8     -3205.906          48.000
G31  22091283.769 8 116090454.704 8      3319.513          48.000
G32  20838151.361 8 109505206.908 8     -1596.936          48.000
> 2020 04 04 10 10 49.0000000  0  9      -0.000000000000
G01  22152330.783 8 116411259.894 8      2227.440          48.000
G08  23725154.250 8 124676493.679 8     -2754.880          48.000
G10  22416704.085 8 117800549.786 8     -1679.159          48.000
G11  21119424.662 8 110983305.675 8      -446.862          48.000
G14  20503906.682 8 107748741.046 8      -344.670          48.000
G22  23155705.970 8 121684028.308 8      2019.872          48.000
G27  24923121.790 8 130971846.866 8     -3195.460          48.000
G31  22090651.561 8 116087132.432 8      3324.998          48.000
G32  20838455.750 8 109506806.479 8     -1602.240          48.000
> 2020 04 04 10 10 50.0000000  0  9      -0.000000000000
G01  22151907.196 8 116409033.930 8      2224.510          48.000
G08  23725677.718 8 124679244.517 8     -2746.776          48.000
G10  22417024.059 8 117802231.259 8     -1683.839          48.000
G11  21119509.458 8 110983751.279 8      -444.301          48.000
G14  20503972.385 8 107749086.321 8      -345.905          48.000
G22  23155321.642 8 121682008.656 8      2019.433          48.000
G27  24923728.873 8 130975037.107 8     -3185.001          48.000
G31  22090018.324 8 116083804.756 8      3330.320          48.000
G32  20838761.151 8 109508411.372 8     -1607.581          48.000
> 2020 04 04 10 10 51.0000000  0  9      -0.000000000000
G01  22151484.147 8 116406810.794 8      2221.784          48.000
G08  23726199.631 8 124681987.183 8     -2738.539          48.000
G10  22417344.942 8 117803917.505 8     -1688.703          48.000
G11  21119593.751 8 110984194.243 8      -441.583          48.000
G14  20504038.323 8 107749432.826 8      -347.129          48.000
G22  23154937.376 8 121679989.327 8      2019.225          48.000
G27  24924333.966 8 130978216.885 8     -3174.536          48.000
G31  22089384.091 8 116080471.842 8      3335.474          48.000
G32  20839067.572 8 109510021.623 8     -1612.955          48.000
> 2020 04 04 10 10 52.0000000  0  9      -0.000000000000
G01  22151061.597 8 116404590.281 8      2219.265          48.000
G08  23726719.964 8 124684721.548 8     -2730.174          48.000
G10  22417666.767 8 117805608.704 8     -1693.746          48.000
G11  21119677.512 8 110984634.411 8      -438.709          48.000
G14  20504104.492 8 107749780.548 8      -348.341          48.000
G22  23154553.128 8 121677970.092 8      2019.245          48.000
G27  24924937.067 8 130981386.198 8     -3164.071          48.000
G31  22088748.893 8 116077133.858 8      3340.457          48.000
G32  20839375.018 8 109511637.264 8     -1618.360          48.000
> 2020 04 04 10 10 53.0000000  0  9      -0.000000000000
G01  22150639.506 8 116402372.184 8      2216.953          48.000
G08  23727238.693 8 124687447.487 8     -2721.687          48.000
G10  22417989.568 8 117807305.034 8     -1698.966          48.000
G11  21119760.712 8 110985071.630 8      -435.684          48.000
G14  20504170.891 8 107750129.475 8      -349.540          48.000
G22  23154168.854 8 121675950.721 8      2019.496          48.000
G27  24925538.177 8 130984545.049 8     -3153.614          48.000
G31  22088112.764 8 116073790.979 8      3345.266          48.000
G32  20839683.496 8 109513258.323 8     -1623.790          48.000
> 2020 04 04 10 10 54.0000000  0  9      -0.000000000000
G01  22150217.836 8 116400156.295 8      2214.849          48.000
G08  23727755.797 8 124690164.880 8     -2713.084          48.000
G10  22418313.379 8 117809006.673 8     -1704.360          48.000
G11  21119843.322 8 110985505.747 8      -432.508          48.000
G14  20504237.517 8 107750479.595 8      -350.725          48.000
G22  23153784.511 8 121673930.985 8      2019.976          48.000
G27  24926137.299 8 130987693.449 8     -3143.170          48.000
G31  22087475.736 8 116070443.379 8      3349.897          48.000
G32  20839993.009 8 109514884.824 8     -1629.245          48.000
> 2020 04 04 10 10 55.0000000  0  9      -0.000000000000
G01  22149796.546 8 116397942.405 8      2212.955          48.000
G08  23728271.253 8 124692873.615 8     -2704.371          48.000
G10  22418638.233 8 117810713.790 8     -1709.924          48.000
G11  21119925.314 8 110985936.615 8      -429.185          48.000
G14  20504304.367 8 107750830.894 8      -351.897          48.000
G22  23153400.054 8 121671910.654 8      2020.685          48.000
G27  24926734.435 8 130990831.415 8     -3132.748          48.000
G31  22086837.844 8 116067091.239 8      3354.346          48.000
G32  20840303.562 8 109516516.790 8     -1634.719          48.000
> 2020 04 04 10 10 56.0000000  0  9      -0.000000000000
G01  22149375.597 8 116395730.303 8      2211.271          48.000
G08  23728785.040 8 124695573.583 8     -2695.553          48.000
G10  22418964.162 8 117812426.556 8     -1715.656          48.000
G11  21120006.659 8 110986364.088 8      -425.717          48.000
G14  20504371.438 8 107751183.358 8      -353.055          48.000
G22  23153015.441 8 121669889.500 8      2021.623          48.000
G27  24927329.591 8 130993958.973 8     -3122.353          48.000
G31  22086199.123 8 116063734.741 8      3358.612          48.000
G32  20840615.158 8 109518154.239 8     -1640.211          48.000
> 2020 04 04 10 10 57.0000000  0  9      -0.000000000000
G01  22148954.948 8 116393519.780 8      2209.799          48.000
G08  23729297.140 8 124698264.683 8     -2686.636          48.000
G10  22419291.197 8 117814145.135 8     -1721.551          48.000
G11  21120087.331 8 110986788.021 8      -422.108          48.000
G14  20504438.729 8 107751536.973 8      -354.199          48.000
G22  23152630.627 8 121667867.294 8      2022.788          48.000
G27  24927922.771 8 130997076.152 8     -3111.993          48.000
G31  22085559.608 8 116060374.070 8      3362.691          48.000
G32  20840927.801 8 109519797.186 8     -1645.715          48.000
> 2020 04 04 10 10 58.0000000  0  9      -0.000000000000
G01  22148534.559 8 116391310.623 8      2208.539          48.000
G08  23729807.535 8 124700946.819 8     -2677.626          48.000
G10  22419619.370 8 117815869.690 8     -1727.606          48.000
G11  21120167.303 8 110987208.275 8      -418.359          48.000
G14  20504506.236 8 107751891.723 8      -355.327          48.000
G22  23152245.570 8 121665843.810 8      2024.180          48.000
G27  24928513.984 8 131000182.991 8     -3101.674          48.000
G31  22084919.335 8 116057009.416 8      3366.579          48.000
G32  20841241.492 8 109521445.644 8     -1651.230          48.000
> 2020 04 04 10 10 59.0000000  0  9      -0.000000000000
G01  22148114.390 8 116389102.621 8      2207.491          48.000
G08  23730316.206 8 124703619.902 8     -2668.529          48.000
G10  22419948.709 8 117817600.378 8     -1733.817          48.000
G11  21120246.548 8 110987624.711 8      -414.473          48.000
G14  20504573.956 8 107752247.593 8      -356.439          48.000
G22  23151860.227 8 121663818.820 8      2025.799          48.000
G27  24929103.237 8 131003279.533 8     -3091.402          48.000
G31  22084278.340 8 116053640.969 8      3370.275          48.000
G32  20841556.234 8 109523099.620 8     -1656.752          48.000
> 2020 04 04 10 11  0.0000000  0  9      -0.000000000000
G01  22147694.399 8 116386895.560 8      2206.656          48.000
G08  23730823.139 8 124706283.848 8     -2659.352          48.000
G10  22420279.245 8 117819337.353 8     -1740.180          48.000
G11  21120325.041 8 110988037.195 8      -410.455          48.000
G14  20504641.886 8 107752604.568 8      -357.536          48.000
G22  23151474.554 8 121661792.099 8      2027.642          48.000
G27  24929690.541 8 131006365.831 8     -3081.185          48.000
G31  22083636.660 8 116050268.924 8      3373.775          48.000
G32  20841872.026 8 109524759.119 8     -1662.277          48.000
> 2020 04 04 10 11  1.0000000  0  9      -0.000000000000
G01  22147274.548 8 116384689.227 8      2206.034          48.000
G08  23731328.318 8 124708938.578 8     -2650.101          48.000
G10  22420611.006 8 117821080.766 8     -1746.692          48.000
G11  21120402.757 8 110988445.596 8      -406.307          48.000
G14  20504710.023 8 107752962.631 8      -358.616          48.000
G22  23151088.510 8 121659763.422 8      2029.709          48.000
G27  24930275.907 8 131009441.942 8     -3071.029          48.000
G31  22082994.334 8 116046893.477 8      3377.078          48.000
G32  20842188.870 8 109526424.145 8     -1667.802          48.000
> 2020 04 04 10 11  2.0000000  0  9      -0.000000000000
G01  22146854.794 8 116382483.411 8      2205.625          48.000
G08  23731831.730 8 124711584.023 8     -2640.781          48.000
G10  22420944.020 8 117822830.763 8     -1753.348          48.000
G11  21120479.672 8 110988849.784 8      -402.031          48.000
G14  20504778.364 8 107753321.766 8      -359.679          48.000
G22  23150702.050 8 121657732.568 8      2031.998          48.000
G27  24930859.346 8 131012507.930 8     -3060.940          48.000
G31  22082351.397 8 116043514.827 8      3380.180          48.000
G32  20842506.765 8 109528094.694 8     -1673.324          48.000
> 2020 04 04 10 11  3.0000000  0  9      -0.000000000000
G01  22146435.098 8 116380277.896 8      2205.429          48.000
G08  23732333.363 8 124714220.116 8     -2631.399          48.000
G10  22421278.313 8 117824587.487 8     -1760.144          48.000
G11  21120555.761 8 110989249.635 8      -397.632          48.000
G14  20504846.906 8 107753681.956 8      -360.725          48.000
G22  23150315.134 8 121655699.314 8      2034.508          48.000
G27  24931440.872 8 131015563.865 8     -3050.926          48.000
G31  22081707.890 8 116040133.176 8      3383.080          48.000
G32  20842825.711 8 109529770.762 8     -1678.840          48.000
> 2020 04 04 10 11  4.0000000  0  9      -0.000000000000
G01  22146015.419 8 116378072.471 8      2205.446          48.000
G08  23732833.204 8 124716846.798 8     -2621.962          48.000
G10  22421613.913 8 117826351.075 8     -1767.076          48.000
G11  21120631.002 8 110989645.027 8      -393.113          48.000
G14  20504915.645 8 107754043.182 8      -361.753          48.000
G22  23149927.720 8 121653663.440 8      2037.237          48.000
G27  24932020.500 8 131018609.827 8     -3040.993          48.000
G31  22081063.850 8 116036748.727 8      3385.775          48.000
G32  20843145.705 8 109531452.340 8     -1684.345          48.000
> 2020 04 04 10 11  5.0000000  0  9      -0.000000000000
G01  22145595.717 8 116375866.922 8      2205.676          48.000
G08  23733331.246 8 124719464.018 8     -2612.475          48.000
G10  22421950.845 8 117828121.661 8     -1774.140          48.000
G11  21120705.371 8 110990035.841 8      -388.478          48.000
G14  20504984.578 8 107754405.428 8      -362.763          48.000
G22  23149539.766 8 121651624.728 8      2040.183          48.000
G27  24932598.246 8 131021645.897 8     -3031.146          48.000
G31  22080419.316 8 116033361.686 8      3388.264          48.000
G32  20843466.745 8 109533139.417 8     -1689.837          48.000
> 2020 04 04 10 11  6.0000000  0  9      -0.000000000000
G01  22145175.950 8 116373661.037 8      2206.117          48.000
G08  23733827.477 8 124722071.729 8     -2602.945          48.000
G10  22422289.133 8 117829899.375 8     -1781.331          48.000
G11  21120778.848 8 110990421.963 8      -383.729          48.000
G14  20505053.701 8 107754768.674 8      -363.755          48.000
G22  23149151.230 8 121649582.963 8      2043.344          48.000
G27  24933174.127 8 131024672.167 8     -3021.393          48.000
G31  22079774.329 8 116029972.260 8      3390.545          48.000
G32  20843788.829 8 109534831.978 8     -1695.312          48.000
> 2020 04 04 10 11  7.0000000  0  9      -0.000000000000
G01  22144756.080 8 116371454.605 8      2206.771          48.000
G08  23734321.892 8 124724669.892 8     -2593.378          48.000
G10  22422628.802 8 117831684.342 8     -1788.645          48.000
G11  21120851.410 8 110990803.281 8      -378.870          48.000
G14  20505123.012 8 107755132.902 8      -364.727          48.000
G22  23148762.073 8 121647537.930 8      2046.719          48.000
G27  24933748.162 8 131027688.733 8     -3011.739          48.000
G31  22079128.928 8 116026580.658 8      3392.615          48.000
G32  20844111.953 8 109536530.005 8     -1700.767          48.000
> 2020 04 04 10 11  8.0000000  0  9      -0.000000000000
G01  22144336.065 8 116369247.414 8      2207.635          48.000
G08  23734814.483 8 124727258.471 8     -2583.781          48.000
G10  22422969.873 8 117833476.683 8     -1796.077          48.000
G11  21120923.038 8 110991179.686 8      -373.906          48.000
G14  20505192.505 8 107755498.093 8      -365.680          48.000
G22  23148372.253 8 121645489.418 8      2050.304          48.000
G27  24934320.369 8 131030695.699 8     -3002.192          48.000
G31  22078483.153 8 116023187.092 8      3394.474          48.000
G32  20844436.113 8 109538233.475 8     -1706.199          48.000
> 2020 04 04 10 11  9.0000000  0  9      -0.000000000000
G01  22143915.865 8 116367039.254 8      2208.709          48.000
G08  23735305.245 8 124729837.442 8     -2574.160          48.000
G10  22423312.370 8 117835276.513 8     -1803.623          48.000
G11  21120993.711 8 110991551.076 8      -368.839          48.000
G14  20505262.179 8 107755864.228 8      -366.614          48.000
G22  23147981.732 8 121643437.215 8      2054.097          48.000
G27  24934890.770 8 131033693.172 8     -2992.757          48.000
G31  22077837.045 8 116019791.773 8      3396.120          48.000
G32  20844761.304 8 109539942.364 8     -1711.604          48.000
> 2020 04 04 10 11 10.0000000  0  9      -0.000000000000
G01  22143495.442 8 116364829.915 8      2209.992          48.000
G08  23735794.175 8 124732406.782 8     -2564.522          48.000
G10  22423656.313 8 117837083.943 8     -1811.278          48.000
G11  21121063.410 8 110991917.350 8      -363.674          48.000
G14  20505332.027 8 107756231.286 8      -367.528          48.000
G22  23147590.468 8 121641381.116 8      2058.096          48.000
G27  24935459.387 8 131036681.270 8     -2983.440          48.000
G31  22077190.644 8 116016394.915 8      3397.551          48.000
G32  20845087.520 8 109541656.643 8     -1716.979          48.000
> 2020 04 04 10 11 11.0000000  0  9      -0.000000000000
G01  22143074.754 8 116362619.190 8      2211.483          48.000
G08  23736281.270 8 124734966.478 8     -2554.873          48.000
G10  22424001.722 8 117838899.080 8     -1819.037          48.000
G11  21121132.118 8 110992278.411 8      -358.415          48.000
G14  20505402.048 8 107756599.248 8      -368.421          48.000
G22  23147198.425 8 121639320.916 8      2062.299          48.000
G27  24936026.243 8 131039660.112 8     -2974.248          48.000
G31  22076543.990 8 116012996.733 8      3398.768          48.000
G32  20845414.757 8 109543376.281 8     -1722.321          48.000
> 2020 04 04 10 11 12.0000000  0  9      -0.000000000000
G01  22142653.763 8 116360406.870 8      2213.180          48.000
G08  23736766.528 8 124737516.523 8     -2545.220          48.000
G10  22424348.618 8 117840722.027 8     -1826.895          48.000
G11  21121199.816 8 110992634.168 8      -353.065          48.000
G14  20505472.237 8 107756968.093 8      -369.294          48.000
G22  23146805.562 8 121637256.413 8      2066.702          48.000
G27  24936591.362 8 131042629.826 8     -2965.186          48.000
G31  22075897.126 8 116009597.443 8      3399.767          48.000
G32  20845743.006 8 109545101.243 8     -1727.626          48.000
> 2020 04 04 10 11 13.0000000  0  9      -0.000000000000
G01  22142232.430 8 116358192.750 8      2215.082          48.000
G08  23737249.949 8 124740056.914 8     -2535.568          48.000
G10  22424697.018 8 117842552.879 8     -1834.847          48.000
G11  21121266.488 8 110992984.531 8      -347.629          48.000
G14  20505542.590 8 107757337.799 8      -370.145          48.000
G22  23146411.843 8 121635187.408 8      2071.303          48.000
G27  24937154.769 8 131045590.546 8     -2956.260          48.000
G31  22075250.093 8 116006197.261 8      3400.550          48.000
G32  20846072.262 8 109546831.490 8     -1732.892          48.000
> 2020 04 04 10 11 14.0000000  0  9      -0.000000000000
G01  22141810.715 8 116355976.627 8      2217.188          48.000
G08  23737731.534 8 124742587.658 8     -2525.925          48.000
G10  22425046.940 8 117844391.728 8     -1842.889          48.000
G11  21121332.118 8 110993329.416 8      -342.110          48.000
G14  20505613.103 8 107757708.347 8      -370.976          48.000
G22  23146017.230 8 121633113.704 8      2076.098          48.000
G27  24937716.491 8 131048542.410 8     -2947.476          48.000
G31  22074602.931 8 116002796.406 8      3401.114          48.000
G32  20846402.515 8 109548566.981 8     -1738.114          48.000
> 2020 04 04 10 11 15.0000000  0  9      -0.000000000000
G01  22141388.580 8 116353758.296 8      2219.495          48.000
G08  23738211.286 8 124745108.765 8     -2516.297          48.000
G10  22425398.400 8 117846238.662 8     -1851.016          48.000
G11  21121396.690 8 110993668.742 8      -336.513          48.000
G14  20505683.772 8 107758079.715 8      -371.784          48.000
G22  23145621.686 8 121631035.110 8      2081.084          48.000
G27  24938276.556 8 131051485.564 8     -2938.840          48.000
G31  22073955.682 8 115999395.096 8      3401.460          48.000
G32  20846733.758 8 109550307.672 8     -1743.291          48.000
> 2020 04 04 10 11 16.0000000  0  9      -0.000000000000
G01  22140965.987 8 116351537.558 8      2222.003          48.000
G08  23738689.207 8 124747620.255 8     -2506.690          48.000
G10  22425751.414 8 117848093.763 8     -1859.221          48.000
G11  21121460.189 8 110994002.434 8      -330.842          48.000
G14  20505754.592 8 107758451.880 8      -372.571          48.000
G22  23145225.176 8 121628951.435 8      2086.259          48.000
G27  24938834.991 8 131054420.157 8     -2930.357          48.000
G31  22073308.388 8 115995993.549 8      3401.587          48.000
G32  20847065.981 8 109552053.515 8     -1748.418          48.000
> 2020 04 04 10 11 17.0000000  0  9      -0.000000000000
G01  22140542.898 8 116349314.213 8      2224.708          48.000
G08  23739165.303 8 124750122.151 8     -2497.112          48.000
G10  22426105.997 8 117849957.106 8     -1867.501          48.000
G11  21121522.603 8 110994330.420 8      -325.100          48.000
G14  20505825.561 8 107758824.821 8      -373.336          48.000
G22  23144827.663 8 121626862.493 8      2091.618          48.000
G27  24939391.827 8 131057346.346 8     -2922.033          48.000
G31  22072661.092 8 115992591.985 8      3401.495          48.000
G32  20847399.175 8 109553804.459 8     -1753.492          48.000
> 2020 04 04 10 11 18.0000000  0  9      -0.000000000000
G01  22140119.276 8 116347088.065 8      2227.610          48.000
G08  23739639.579 8 124752614.485 8     -2487.567          48.000
G10  22426462.162 8 117851828.764 8     -1875.850          48.000
G11  21121583.917 8 110994652.630 8      -319.293          48.000
G14  20505896.673 8 107759198.516 8      -374.079          48.000
G22  23144429.112 8 121624768.101 8      2097.158          48.000
G27  24939947.095 8 131060264.293 8     -2913.873          48.000
G31  22072013.833 8 115989190.622 8      3401.184          48.000
G32  20847733.329 8 109555560.450 8     -1758.511          48.000
> 2020 04 04 10 11 19.0000000  0  9      -0.000000000000
G01  22139695.083 8 116344858.918 8      2230.705          48.000
G08  23740112.042 8 124755097.295 8     -2478.063          48.000
G10  22426819.922 8 117853708.804 8     -1884.262          48.000
G11  21121644.121 8 110994969.003 8      -313.425          48.000
G14  20505967.923 8 107759572.941 8      -374.798          48.000
G22  23144029.491 8 121622668.079 8      2102.875          48.000
G27  24940500.826 8 131063174.164 8     -2905.882          48.000
G31  22071366.655 8 115985789.681 8      3400.653          48.000
G32  20848068.433 8 109557321.431 8     -1763.472          48.000
> 2020 04 04 10 11 20.0000000  0  9      -0.000000000000
G01  22139270.282 8 116342626.579 8      2233.992          48.000
G08  23740582.702 8 124757570.623 8     -2468.606          48.000
G10  22427179.289 8 117855597.285 8     -1892.733          48.000
G11  21121703.203 8 110995279.478 8      -307.499          48.000
G14  20506039.309 8 107759948.075 8      -375.495          48.000
G22  23143628.765 8 121620562.253 8      2108.767          48.000
G27  24941053.053 8 131066076.131 8     -2898.066          48.000
G31  22070719.598 8 115982389.381 8      3399.902          48.000
G32  20848404.474 8 109559087.342 8     -1768.370          48.000
> 2020 04 04 10 11 21.0000000  0  9      -0.000000000000
G01  22138844.839 8 116340390.860 8      2237.467          48.000
G08  23741051.567 8 124760034.521 8     -2459.203          48.000
G10  22427540.273 8 117857494.264 8     -1901.257          48.000
G11  21121761.151 8 110995584.002 8      -301.521          48.000
G14  20506110.825 8 107760323.895 8      -376.169          48.000
G22  23143226.902 8 121618450.450 8      2114.828          48.000
G27  24941603.809 8 131068970.371 8     -2890.429          48.000
G31  22070072.706 8 115978989.940 8      3398.933          48.000
G32  20848741.442 8 109560858.119 8     -1773.204          48.000
> 2020 04 04 10 11 22.0000000  0  9      -0.000000000000
G01  22138418.716 8 116338151.571 8      2241.130          48.000
G08  23741518.648 8 124762489.044 8     -2449.859          48.000
G10  22427902.883 8 117859399.792 8     -1909.829          48.000
G11  21121817.958 8 110995882.522 8      -295.495          48.000
G14  20506182.467 8 107760700.376 8      -376.820          48.000
G22  23142823.870 8 121616332.503 8      2121.055          48.000
G27  24942153.130 8 131071857.066 8     -2882.977          48.000
G31  22069426.018 8 115975591.577 8      3397.745          48.000
G32  20849079.324 8 109562633.697 8     -1777.971          48.000
> 2020 04 04 10 11 23.0000000  0  9      -0.000000000000
G01  22137991.878 8 116335908.528 8      2244.975          48.000
G08  23741983.957 8 124764934.256 8     -2440.581          48.000
G10  22428267.128 8 117861313.913 8     -1918.444          48.000
G11  21121873.614 8 110996174.994 8      -289.425          48.000
G14  20506254.231 8 107761077.496 8      -377.447          48.000
G22  23142419.637 8 121614208.248 8      2127.444          48.000
G27  24942701.051 8 131074736.404 8     -2875.715          48.000
G31  22068779.577 8 115972194.512 8      3396.340          48.000
G32  20849418.106 8 109564414.006 8     -1782.667          48.000
> 2020 04 04 10 11 24.0000000  0  9      -0.000000000000
G01  22137564.292 8 116333661.548 8      2249.002          48.000
G08  23742447.507 8 124767370.226 8     -2431.376          48.000
G10  22428633.017 8 117863236.668 8     -1927.095          48.000
G11  21121928.110 8 110996461.376 8      -283.315          48.000
G14  20506326.112 8 107761455.232 8      -378.050          48.000
G22  23142014.173 8 121612077.524 8      2133.990          48.000
G27  24943247.608 8 131077608.576 8     -2868.646          48.000
G31  22068133.424 8 115968798.960 8      3394.717          48.000
G32  20849757.774 8 109566198.975 8     -1787.290          48.000
> 2020 04 04 10 11 25.0000000  0  9      -0.000000000000
G01  22137135.922 8 116331410.453 8      2253.207          48.000
G08  23742909.313 8 124769797.029 8     -2422.248          48.000
G10  22429000.555 8 117865168.090 8     -1935.778          48.000
G11  21121981.441 8 110996741.630 8      -277.171          48.000
G14  20506398.105 8 107761833.559 8      -378.630          48.000
G22  23141607.449 8 121609940.178 8      2140.690          48.000
G27  24943792.839 8 131080473.778 8     -2861.776          48.000
G31  22067487.601 8 115965405.140 8      3392.877          48.000
G32  20850098.315 8 109567988.529 8     -1791.836          48.000
> 2020 04 04 10 11 26.0000000  0  9      -0.000000000000
G01  22136706.735 8 116329155.065 8      2257.586          48.000
G08  23743369.390 8 124772214.746 8     -2413.206          48.000
G10  22429369.748 8 117867108.209 8     -1944.488          48.000
G11  21122033.599 8 110997015.725 8      -270.997          48.000
G14  20506470.206 8 107762212.454 8      -379.186          48.000
G22  23141199.436 8 121607796.057 8      2147.538          48.000
G27  24944336.781 8 131083332.211 8     -2855.110          48.000
G31  22066842.148 8 115962013.267 8      3390.823          48.000
G32  20850439.714 8 109569782.590 8     -1796.304          48.000
> 2020 04 04 10 11 27.0000000  0  9      -0.000000000000
G01  22136276.699 8 116326895.211 8      2262.138          48.000
G08  23743827.755 8 124774623.465 8     -2404.253          48.000
G10  22429740.600 8 117869057.049 8     -1953.218          48.000
G11  21122084.580 8 110997283.632 8      -264.796          48.000
G14  20506542.411 8 107762591.892 8      -379.717          48.000
G22  23140790.105 8 121605645.014 8      2154.531          48.000
G27  24944879.475 8 131086184.081 8     -2848.651          48.000
G31  22066197.107 8 115958623.555 8      3388.554          48.000
G32  20850781.955 8 109571581.078 8     -1800.690          48.000
> 2020 04 04 10 11 28.0000000  0  9      -0.000000000000
G01  22135845.781 8 116324630.722 8      2266.857          48.000
G08  23744284.425 8 124777023.280 8     -2395.398          48.000
G10  22430113.115 8 117871014.626 8     -1961.963          48.000
G11  21122134.379 8 110997545.327 8      -258.575          48.000
G14  20506614.714 8 107762971.850 8      -380.225          48.000
G22  23140379.431 8 121603486.909 8      2161.664          48.000
G27  24945420.960 8 131089029.598 8     -2842.403          48.000
G31  22065552.518 8 115955236.219 8      3386.072          48.000
G32  20851125.023 8 109573383.910 8     -1804.992          48.000
> 2020 04 04 10 11 29.0000000  0  9      -0.000000000000
G01  22135413.948 8 116322361.430 8      2271.742          48.000
G08  23744739.419 8 124779414.289 8     -2386.645          48.000
G10  22430487.295 8 117872980.954 8     -1970.718          48.000
G11  21122182.993 8 110997800.793 8      -252.337          48.000
G14  20506687.112 8 107763352.303 8      -380.708          48.000
G22  23139967.386 8 121601321.603 8      2168.932          48.000
G27  24945961.276 8 131091868.974 8     -2836.371          48.000
G31  22064908.421 8 115951851.471 8      3383.379          48.000
G32  20851468.901 8 109575191.000 8     -1809.207          48.000
> 2020 04 04 10 11 30.0000000  0  9      -0.000000000000
G01  22134981.171 8 116320087.172 8      2276.789          48.000
G08  23745192.759 8 124781796.600 8     -2378.000          48.000
G10  22430863.142 8 117874956.039 8     -1979.477          48.000
G11  21122230.418 8 110998050.013 8      -246.087          48.000
G14  20506759.600 8 107763733.227 8      -381.166          48.000
G22  23139553.946 8 121599148.963 8      2176.330          48.000
G27  24946500.465 8 131094702.427 8     -2830.558          48.000
G31  22064264.856 8 115948469.521 8      3380.475          48.000
G32  20851813.573 8 109577002.261 8     -1813.332          48.000
> 2020 04 04 10 11 31.0000000  0  9      -0.000000000000
G01  22134547.418 8 116317807.788 8      2281.993          48.000
G08  23745644.464 8 124784170.322 8     -2369.469          48.000
G10  22431240.655 8 117876939.883 8     -1988.235          48.000
G11  21122276.653 8 110998292.980 8      -239.829          48.000
G14  20506832.172 8 107764114.597 8      -381.601          48.000
G22  23139139.086 8 121596968.862 8      2183.854          48.000
G27  24947038.570 8 131097530.179 8     -2824.969          48.000
G31  22063621.864 8 115945090.579 8      3377.364          48.000
G32  20852159.021 8 109578817.602 8     -1817.366          48.000
> 2020 04 04 10 11 32.0000000  0  9      -0.000000000000
G01  22134112.660 8 116315523.122 8      2287.352          48.000
G08  23746094.557 8 124786535.573 8     -2361.059          48.000
G10  22431619.835 8 117878932.483 8     -1996.987          48.000
G11  21122321.697 8 110998529.687 8      -233.569          48.000
G14  20506904.825 8 107764496.390 8      -382.010          48.000
G22  23138722.783 8 121594781.176 8      2191.498          48.000
G27  24947575.632 8 131100352.455 8     -2819.607          48.000
G31  22062979.484 8 115941714.852 8      3374.045          48.000
G32  20852505.228 8 109580636.929 8     -1821.305          48.000
> 2020 04 04 10 11 33.0000000  0  9      -0.000000000000
G01  22133676.868 8 116313233.022 8      2292.861          48.000
G08  23746543.061 8 124788892.476 8     -2352.774          48.000
G10  22432000.679 8 117880933.828 8     -2005.726          48.000
G11  21122365.550 8 110998760.135 8      -227.311          48.000
G14  20506977.553 8 107764878.579 8      -382.396          48.000
G22  23138305.014 8 121592585.788 8      2199.258          48.000
G27  24948111.695 8 131103169.483 8     -2814.475          48.000
G31  22062337.755 8 115938342.545 8      3370.523          48.000
G32  20852852.175 8 109582460.147 8     -1825.147          48.000
> 2020 04 04 10 11 34.0000000  0  9      -0.000000000000
G01  22133240.014 8 116310937.339 8      2298.517          48.000
G08  23746990.001 8 124791241.159 8     -2344.620          48.000
G10  22432383.184 8 117882943.903 8     -2014.447          48.000
G11  21122408.212 8 110998984.327 8      -221.058          48.000
G14  20507050.352 8 107765261.142 8      -382.756          48.000
G22  23137885.758 8 121590382.584 8      2207.129          48.000
G27  24948646.804 8 131105981.496 8     -2809.576          48.000
G31  22061696.715 8 115934973.862 8      3366.798          48.000
G32  20853199.843 8 109584287.158 8     -1828.890          48.000
> 2020 04 04 10 11 35.0000000  0  9      -0.000000000000
G01  22132802.069 8 116308635.929 8      2304.315          48.000
G08  23747435.403 8 124793581.756 8     -2336.603          48.000
G10  22432767.346 8 117884962.689 8     -2023.145          48.000
G11  21122449.686 8 110999202.272 8      -214.817          48.000
G14  20507123.218 8 107765644.052 8      -383.092          48.000
G22  23137464.993 8 121588171.455 8      2215.105          48.000
G27  24949181.004 8 131108788.728 8     -2804.914          48.000
G31  22061056.403 8 115931609.004 8      3362.873          48.000
G32  20853548.215 8 109586117.861 8     -1832.532          48.000
> 2020 04 04 10 11 36.0000000  0  9      -0.000000000000
G01  22132363.008 8 116306328.650 8      2310.252          48.000
G08  23747879.292 8 124795914.408 8     -2328.729          48.000
G10  22433153.161 8 117886990.159 8     -2031.814          48.000
G11  21122489.973 8 110999413.983 8      -208.592          48.000
G14  20507196.145 8 107766027.286 8      -383.403          48.000
G22  23137042.702 8 121585952.301 8      2223.181          48.000
G27  24949714.339 8 131111591.418 8     -2800.492          48.000
G31  22060416.857 8 115928248.171 8      3358.750          48.000
G32  20853897.270 8 109587952.155 8     -1836.071          48.000
> 2020 04 04 10 11 37.0000000  0  9      -0.000000000000
G01  22131923.216 8 116304017.529 8      2311.039          48.000
G08  23748322.202 8 124798241.910 8     -2327.450          48.000
G10  22433540.079 8 117889023.419 8     -2033.477          48.000
G11  21122529.513 8 110999621.768 8      -207.966          48.000
G14  20507269.145 8 107766410.903 8      -383.896          48.000
G22  23136619.394 8 121583727.809 8      2224.548          48.000
G27  24950247.116 8 131114391.178 8     -2799.625          48.000
G31  22059777.867 8 115924890.258 8      3357.622          48.000
G32  20854246.793 8 109589788.913 8     -1837.023          48.000
> 2020 04 04 10 11 38.0000000  0  9      -0.000000000000
G01  22131483.472 8 116301706.663 8      2310.681          48.000
G08  23748765.115 8 124800569.430 8     -2327.595          48.000
G10  22433927.047 8 117891056.951 8     -2033.612          48.000
G11  21122569.146 8 110999830.041 8      -208.563          48.000
G14  20507342.246 8 107766795.052 8      -384.432          48.000
G22  23136196.084 8 121581503.298 8      2224.434          48.000
G27  24950779.858 8 131117190.749 8     -2799.503          48.000
G31  22059138.973 8 115921532.854 8      3357.174          48.000
G32  20854596.403 8 109591626.120 8     -1837.424          48.000
> 2020 04 04 10 11 39.0000000  0  9      -0.000000000000
G01  22131043.796 8 116299396.154 8      2310.324          48.000
G08  23749208.055 8 124802897.095 8     -2327.740          48.000
G10  22434314.042 8 117893090.618 8     -2033.747          48.000
G11  21122608.893 8 111000038.911 8      -209.160          48.000
G14  20507415.449 8 107767179.737 8      -384.968          48.000
G22  23135772.794 8 121579278.901 8      2224.320          48.000
G27  24951312.576 8 131119990.198 8     -2799.382          48.000
G31  22058500.165 8 115918175.898 8      3356.726          48.000
G32  20854946.088 8 109593463.728 8     -1837.824          48.000
> 2020 04 04 10 11 40.0000000  0  9      -0.000000000000
G01  22130604.189 8 116297086.003 8      2309.966          48.000
G08  23749651.023 8 124805224.904 8     -2327.885          48.000
G10  22434701.062 8 117895124.419 8     -2033.881          48.000
G11  21122648.753 8 111000248.377 8      -209.757          48.000
G14  20507488.754 8 107767564.957 8      -385.504          48.000
G22  23135349.527 8 121577054.618 8      2224.207          48.000
G27  24951845.272 8 131122789.526 8     -2799.260          48.000
G31  22057861.442 8 115914819.390 8      3356.278          48.000
G32  20855295.850 8 109595301.736 8     -1838.225          48.000
> 2020 04 04 10 11 41.0000000  0  9      -0.000000000000
G01  22130164.649 8 116294776.209 8      2309.609          48.000
G08  23750094.019 8 124807552.859 8     -2328.030          48.000
G10  22435088.107 8 117897158.355 8     -2034.016          48.000
G11  21122688.726 8 111000458.440 8      -210.353          48.000
G14  20507562.161 8 107767950.714 8      -386.040          48.000
G22  23134926.281 8 121574830.448 8      2224.093          48.000
G27  24952377.944 8 131125588.733 8     -2799.138          48.000
G31  22057222.804 8 115911463.330 8      3355.830          48.000
G32  20855645.687 8 109597140.145 8     -1838.625          48.000
> 2020 04 04 10 11 42.0000000  0  9      -0.000000000000
G01  22129725.177 8 116292466.773 8      2309.251          48.000
G08  23750537.042 8 124809880.959 8     -2328.175          48.000
G10  22435475.179 8 117899192.426 8     -2034.151          48.000
G11  21122728.814 8 111000669.099 8      -210.950          48.000
G14  20507635.670 8 107768337.006 8      -386.576          48.000
G22  23134503.056 8 121572606.391 8      2223.980          48.000
G27  24952910.593 8 131128387.817 8     -2799.017          48.000
G31  22056584.252 8 115908107.718 8      3355.382          48.000
G32  20855995.601 8 109598978.954 8     -1839.025          48.000
> 2020 04 04 10 11 43.0000000  0  9      -0.000000000000
G01  22129285.774 8 116290157.694 8      2308.894          48.000
G08  23750980.093 8 124812209.203 8     -2328.320          48.000
G10  22435862.276 8 117901226.632 8     -2034.285          48.000
G11  21122769.014 8 111000880.356 8      -211.547          48.000
G14  20507709.281 8 107768723.834 8      -387.111          48.000
G22  23134079.853 8 121570382.449 8      2223.866          48.000
G27  24953443.219 8 131131186.780 8     -2798.895          48.000
G31  22055945.785 8 115904752.555 8      3354.933          48.000
G32  20856345.591 8 109600818.163 8     -1839.426          48.000
> 2020 04 04 10 11 44.0000000  0  9      -0.000000000000
G01  22128846.438 8 116287848.973 8      2308.536          48.000
G08  23751423.171 8 124814537.592 8     -2328.464          48.000
G10  22436249.398 8 117903260.972 8     -2034.420          48.000
G11  21122809.329 8 111001092.209 8      -212.143          48.000
G14  20507782.994 8 107769111.197 8      -387.647          48.000
G22  23133656.672 8 121568158.620 8      2223.752          48.000
G27  24953975.821 8 131133985.620 8     -2798.773          48.000
G31  22055307.403 8 115901397.840 8      3354.485          48.000
G32  20856695.658 8 109602657.773 8     -1839.826          48.000
> 2020 04 04 10 11 45.0000000  0  9      -0.000000000000
G01  22128407.171 8 116285540.610 8      2308.178          48.000
G08  23751866.277 8 124816866.125 8     -2328.609          48.000
G10  22436636.546 8 117905295.447 8     -2034.555          48.000
G11  21122849.757 8 111001304.658 8      -212.740          48.000
G14  20507856.809 8 107769499.097 8      -388.182          48.000
G22  23133233.513 8 121565934.904 8      2223.639          48.000
G27  24954508.401 8 131136784.339 8     -2798.651          48.000
G31  22054669.107 8 115898043.574 8      3354.036          48.000
G32  20857045.800 8 109604497.782 8     -1840.226          48.000
> 2020 04 04 10 11 46.0000000  0  9      -0.000000000000
G01  22127967.972 8 116283232.605 8      2307.820          48.000
G08  23752309.411 8 124819194.803 8     -2328.753          48.000
G10  22437023.720 8 117907330.057 8     -2034.689          48.000
G11  21122890.298 8 111001517.704 8      -213.337          48.000
G14  20507930.725 8 107769887.531 8      -388.718          48.000
G22  23132810.375 8 121563711.302 8      2223.525          48.000
G27  24955040.957 8 131139582.935 8     -2798.528          48.000
G31  22054030.896 8 115894689.757 8      3353.587          48.000
G32  20857396.019 8 109606338.191 8     -1840.625          48.000
> 2020 04 04 10 11 47.0000000  0  9      -0.000000000000
G01  22127528.840 8 116280924.958 8      2307.462          48.000
G08  23752752.571 8 124821523.625 8     -2328.897          48.000
G10  22437410.920 8 117909364.801 8     -2034.824          48.000
G11  21122930.953 8 111001731.347 8      -213.933          48.000
G14  20508004.744 8 107770276.501 8      -389.253          48.000
G22  23132387.258 8 121561487.814 8      2223.412          48.000
G27  24955573.490 8 131142381.410 8     -2798.406          48.000
G31  22053392.771 8 115891336.389 8      3353.138          48.000
G32  20857746.313 8 109608179.000 8     -1841.025          48.000
> 2020 04 04 10 11 48.0000000  0  9      -0.000000000000
G01  22127089.777 8 116278617.668 8      2307.104          48.000
G08  23753195.760 8 124823852.592 8     -2329.041          48.000
G10  22437798.145 8 117911399.680 8     -2034.959          48.000
G11  21122971.721 8 111001945.586 8      -214.530          48.000
G14  20508078.864 8 107770666.006 8      -389.789          48.000
G22  23131964.164 8 121559264.439 8      2223.298          48.000
G27  24956105.999 8 131145179.762 8     -2798.284          48.000
G31  22052754.731 8 115887983.470 8      3352.689          48.000
G32  20858096.684 8 109610020.209 8     -1841.425          48.000
> 2020 04 04 10 11 49.0000000  0  9      -0.000000000000
G01  22126650.783 8 116276310.737 8      2306.746          48.000
G08  23753638.975 8 124826181.702 8     -2329.185          48.000
G10  22438185.395 8 117913434.694 8     -2035.093          48.000
G11  21123012.603 8 111002160.422 8      -215.126          48.000
G14  20508153.086 8 107771056.047 8      -390.324          48.000
G22  23131541.091 8 121557041.178 8      2223.184          48.000
G27  24956638.485 8 131147977.991 8     -2798.161          48.000
G31  22052116.776 8 115884631.000 8      3352.239          48.000
G32  20858447.130 8 109611861.817 8     -1841.824          48.000
> 2020 04 04 10 11 50.0000000  0  9      -0.000000000000
G01  22126211.856 8 116274004.164 8      2306.388          48.000
G08  23754082.218 8 124828510.957 8     -2329.329          48.000
G10  22438572.672 8 117915469.842 8     -2035.228          48.000
G11  21123053.598 8 111002375.854 8      -215.723          48.000
G14  20508227.411 8 107771446.623 8      -390.859          48.000
G22  23131118.039 8 121554818.030 8      2223.071          48.000
G27  24957170.948 8 131150776.098 8     -2798.039          48.000
G31  22051478.907 8 115881278.980 8      3351.790          48.000
G32  20858797.653 8 109613703.825 8     -1842.224          48.000
> 2020 04 04 10 11 51.0000000  0  9      -0.000000000000
G01  22125772.997 8 116271697.949 8      2306.030          48.000
G08  23754525.489 8 124830840.355 8     -2329.473          48.000
G10  22438959.974 8 117917505.125 8     -2035.363          48.000
G11  21123094.707 8 111002591.883 8      -216.319          48.000
G14  20508301.837 8 107771837.734 8      -391.394          48.000
G22  23130695.009 8 121552594.997 8      2222.957          48.000
G27  24957703.388 8 131153574.083 8     -2797.916          48.000
G31  22050841.124 8 115877927.409 8      3351.340          48.000
G32  20859148.252 8 109615546.232 8     -1842.623          48.000
> 2020 04 04 10 11 52.0000000  0  9      -0.000000000000
G01  22125334.207 8 116269392.093 8      2305.671          48.000
G08  23754968.786 8 124833169.897 8     -2329.617          48.000
G10  22439347.301 8 117919540.543 8     -2035.497          48.000
G11  21123135.930 8 111002808.508 8      -216.916          48.000
G14  20508376.364 8 107772229.381 8      -391.929          48.000
G22  23130272.001 8 121550372.076 8      2222.843          48.000
G27  24958235.804 8 131156371.945 8     -2797.794          48.000
G31  22050203.426 8 115874576.288 8      3350.890          48.000
G32  20859498.926 8 109617389.039 8     -1843.023          48.000
> 2020 04 04 10 11 53.0000000  0  9      -0.000000000000
G01  22124895.484 8 116267086.594 8      2305.313          48.000
G08  23755412.112 8 124835499.583 8     -2329.761          48.000
G10  22439734.654 8 117921576.095 8     -2035.632          48.000
G11  21123177.266 8 111003025.730 8      -217.512          48.000
G14  20508450.994 8 107772621.562 8      -392.464          48.000
G22  23129849.015 8 121548149.270 8      2222.730          48.000
G27  24958768.197 8 131159169.684 8     -2797.671          48.000
G31  22049565.814 8 115871225.617 8      3350.441          48.000
G32  20859849.677 8 109619232.244 8     -1843.422          48.000
> 2020 04 04 10 11 54.0000000  0  9      -0.000000000000
G01  22124456.830 8 116264781.455 8      2304.954          48.000
G08  23755855.464 8 124837829.413 8     -2329.904          48.000
G10  22440122.033 8 117923611.782 8     -2035.767          48.000
G11  21123218.715 8 111003243.548 8      -218.109          48.000
G14  20508525.726 8 107773014.278 8      -392.999          48.000
G22  23129426.050 8 121545926.577 8      2222.616          48.000
G27  24959300.567 8 131161967.301 8     -2797.548          48.000
G31  22048928.287 8 115867875.395 8      3349.990          48.000
G32  20860200.504 8 109621075.849 8     -1843.821          48.000
> 2020 04 04 10 11 55.0000000  0  9      -0.000000000000
G01  22124018.245 8 116262476.673 8      2304.596          48.000
G08  23756298.844 8 124840159.386 8     -2330.048          48.000
G10  22440509.438 8 117925647.603 8     -2035.901          48.000
G11  21123260.278 8 111003461.963 8      -218.705          48.000
G14  20508600.559 8 107773407.529 8      -393.534          48.000
G22  23129003.106 8 121543703.998 8      2222.503          48.000
G27  24959832.913 8 131164764.795 8     -2797.425          48.000
G31  22048290.846 8 115864525.624 8      3349.540          48.000
G32  20860551.406 8 109622919.853 8     -1844.220          48.000
> 2020 04 04 10 11 56.0000000  0  9      -0.000000000000
G01  22123579.727 8 116260172.251 8      2304.237          48.000
G08  23756742.251 8 124842489.503 8     -2330.191          48.000
G10  22440896.868 8 117927683.559 8     -2036.036          48.000
G11  21123301.955 8 111003680.974 8      -219.301          48.000
G14  20508675.494 8 107773801.316 8      -394.069          48.000
G22  23128580.185 8 121541481.532 8      2222.389          48.000
G27  24960365.236 8 131167562.165 8     -2797.302          48.000
G31  22047653.491 8 115861176.303 8      3349.090          48.000
G32  20860902.385 8 109624764.256 8     -1844.619          48.000
> 2020 04 04 10 11 57.0000000  0  9      -0.000000000000
G01  22123141.278 8 116257868.187 8      2303.879          48.000
G08  23757185.685 8 124844819.763 8     -2330.335          48.000
G10  22441284.323 8 117929719.650 8     -2036.170          48.000
G11  21123343.744 8 111003900.581 8      -219.898          48.000
G14  20508750.531 8 107774195.637 8      -394.604          48.000
G22  23128157.285 8 121539259.180 8      2222.275          48.000
G27  24960897.536 8 131170359.413 8     -2797.179          48.000
G31  22047016.221 8 115857827.433 8      3348.640          48.000
G32  20861253.439 8 109626609.058 8     -1845.018          48.000
> 2020 04 04 10 11 58.0000000  0  9      -0.000000000000
G01  22122702.897 8 116255564.481 8      2303.520          48.000
G08  23757629.147 8 124847150.166 8     -2330.478          48.000
G10  22441671.804 8 117931755.875 8     -2036.305          48.000
G11  21123385.648 8 111004120.785 8      -220.494          48.000
G14  20508825.669 8 107774590.492 8      -395.139          48.000
G22  23127734.406 8 121537036.942 8      2222.162          48.000
G27  24961429.812 8 131173156.537 8     -2797.056          48.000
G31  22046379.037 8 115854479.013 8      3348.189          48.000
G32  20861604.569 8 109628454.259 8     -1845.416          48.000
> 2020 04 04 10 11 59.0000000  0  9      -0.000000000000
G01  22122264.584 8 116253261.134 8      2303.161          48.000
G08  23758072.636 8 124849480.712 8     -2330.621          48.000
G10  22442059.311 8 117933792.235 8     -2036.440          48.000
G11  21123427.665 8 111004341.585 8      -221.090          48.000
G14  20508900.910 8 107774985.883 8      -395.673          48.000
G22  23127311.549 8 121534814.817 8      2222.048          48.000
G27  24961962.064 8 131175953.539 8     -2796.932          48.000
G31  22045741.939 8 115851131.043 8      3347.738          48.000
G32  20861955.775 8 109630299.858 8     -1845.815          48.000
> 2020 04 04 10 12  0.0000000  0  9      -0.000000000000
G01  22121826.339 8 116250958.147 8      2302.802          48.000
G08  23758516.152 8 124851811.402 8     -2330.764          48.000
G10  22442446.844 8 117935828.730 8     -2036.574          48.000
G11  21123469.795 8 111004562.981 8      -221.687          48.000
G14  20508976.252 8 107775381.808 8      -396.208          48.000
G22  23126888.714 8 121532592.806 8      2221.934          48.000
G27  24962494.293 8 131178750.417 8     -2796.809          48.000
G31  22045104.927 8 115847783.525 8      3347.287          48.000
G32  20862307.057 8 109632145.856 8     -1846.213          48.000
> 2020 04 04 10 12  1.0000000  0  9      -0.000000000000
G01  22121388.163 8 116248655.518 8      2302.443          48.000
G08  23758959.695 8 124854142.234 8     -2330.907          48.000
G10  22442834.402 8 117937865.359 8     -2036.709          48.000
G11  21123512.039 8 111004784.974 8      -222.283          48.000
G14  20509051.695 8 107775778.267 8      -396.743          48.000
G22  23126465.901 8 121530370.909 8      2221.821          48.000
G27  24963026.499 8 131181547.171 8     -2796.686          48.000
G31  22044468.000 8 115844436.457 8      3346.836          48.000
G32  20862658.415 8 109633992.252 8     -1846.612          48.000
> 2020 04 04 10 12  2.0000000  0  9      -0.000000000000
G01  22120950.055 8 116246353.248 8      2302.084          48.000
G08  23759403.266 8 124856473.209 8     -2331.050          48.000
G10  22443221.986 8 117939902.122 8     -2036.843          48.000
G11  21123554.396 8 111005007.563 8      -222.879          48.000
G14  20509127.241 8 107776175.262 8      -397.277          48.000
G22  23126043.109 8 121528149.125 8      2221.707          48.000
G27  24963558.681 8 131184343.802 8     -2796.562          48.000
G31  22043831.160 8 115841089.841 8      3346.385          48.000
G32  20863009.849 8 109635839.046 8     -1847.010          48.000
> 2020 04 04 10 12  3.0000000  0  9      -0.000000000000
G01  22120512.016 8 116244051.337 8      2301.725          48.000
G08  23759846.863 8 124858804.327 8     -2331.192          48.000
G10  22443609.595 8 117941939.021 8     -2036.978          48.000
G11  21123596.867 8 111005230.748 8      -223.475          48.000
G14  20509202.888 8 107776572.790 8      -397.811          48.000
G22  23125620.338 8 121525927.455 8      2221.593          48.000
G27  24964090.840 8 131187140.310 8     -2796.439          48.000
G31  22043194.405 8 115837743.675 8      3345.934          48.000
G32  20863361.358 8 109637686.239 8     -1847.408          48.000
> 2020 04 04 10 12  4.0000000  0  9      -0.000000000000
G01  22120074.044 8 116241749.785 8      2301.366          48.000
G08  23760290.488 8 124861135.588 8     -2331.335          48.000
G10  22443997.230 8 117943976.053 8     -2037.112          48.000
G11  21123639.451 8 111005454.529 8      -224.072          48.000
G14  20509278.637 8 107776970.853 8      -398.346          48.000
G22  23125197.590 8 121523705.899 8      2221.480          48.000
G27  24964622.975 8 131189936.694 8     -2796.315          48.000
G31  22042557.736 8 115834397.961 8      3345.482          48.000
G32  20863712.943 8 109639533.830 8     -1847.806          48.000
> 2020 04 04 10 12  5.0000000  0  9      -0.000000000000
G01  22119636.141 8 116239448.592 8      2301.007          48.000
G08  23760734.140 8 124863466.991 8     -2331.477          48.000
G10  22444384.890 8 117946013.221 8     -2037.247          48.000
G11  21123682.149 8 111005678.907 8      -224.668          48.000
G14  20509354.488 8 107777369.450 8      -398.880          48.000
G22  23124774.863 8 121521484.456 8      2221.366          48.000
G27  24965155.086 8 131192732.954 8     -2796.191          48.000
G31  22041921.153 8 115831052.699 8      3345.031          48.000
G32  20864064.604 8 109641381.819 8     -1848.205          48.000
> 2020 04 04 10 12  6.0000000  0  9      -0.000000000000
G01  22119198.307 8 116237147.759 8      2300.648          48.000
G08  23761177.819 8 124865798.537 8     -2331.620          48.000
G10  22444772.577 8 117948050.522 8     -2037.382          48.000
G11  21123724.960 8 111005903.881 8      -225.264          48.000
G14  20509430.440 8 107777768.582 8      -399.414          48.000
G22  23124352.157 8 121519263.127 8      2221.252          48.000
G27  24965687.174 8 131195529.091 8     -2796.067          48.000
G31  22041284.656 8 115827707.888 8      3344.579          48.000
G32  20864416.341 8 109643230.207 8     -1848.602          48.000
> 2020 04 04 10 12  7.0000000  0  9      -0.000000000000
G01  22118760.541 8 116234847.284 8      2300.288          48.000
G08  23761621.525 8 124868130.225 8     -2331.762          48.000
G10  22445160.288 8 117950087.959 8     -2037.516          48.000
G11  21123767.884 8 111006129.451 8      -225.860          48.000
G14  20509506.494 8 107778168.248 8      -399.949          48.000
G22  23123929.473 8 121517041.912 8      2221.138          48.000
G27  24966219.239 8 131198325.103 8     -2795.943          48.000
G31  22040648.245 8 115824363.529 8      3344.127          48.000
G32  20864768.153 8 109645078.992 8     -1849.000          48.000
> 2020 04 04 10 12  8.0000000  0  9      -0.000000000000
G01  22118322.843 8 116232547.170 8      2299.929          48.000
G08  23762065.258 8 124870462.055 8     -2331.904          48.000
G10  22445548.026 8 117952125.530 8     -2037.651          48.000
G11  21123810.922 8 111006355.617 8      -226.456          48.000
G14  20509582.649 8 107778568.448 8      -400.483          48.000
G22  23123506.811 8 121514820.810 8      2221.025          48.000
G27  24966751.279 8 131201120.992 8     -2795.819          48.000
G31  22040011.920 8 115821019.623 8      3343.675          48.000
G32  20865120.041 8 109646928.175 8     -1849.398          48.000
> 2020 04 04 10 12  9.0000000  0  9      -0.000000000000
G01  22117885.213 8 116230247.414 8      2299.569          48.000
G08  23762509.019 8 124872794.027 8     -2332.047          48.000
G10  22445935.788 8 117954163.235 8     -2037.785          48.000
G11  21123854.074 8 111006582.379 8      -227.052          48.000
G14  20509658.906 8 107778969.182 8      -401.017          48.000
G22  23123084.171 8 121512599.823 8      2220.911          48.000
G27  24967283.297 8 131203916.757 8     -2795.695          48.000
G31  22039375.681 8 115817676.168 8      3343.223          48.000
G32  20865472.005 8 109648777.755 8     -1849.796          48.000
> 2020 04 04 10 12 10.0000000  0  9      -0.000000000000
G01  22117447.652 8 116227948.018 8      2299.210          48.000
G08  23762952.806 8 124875126.142 8     -2332.189          48.000
G10  22446323.577 8 117956201.075 8     -2037.920          48.000
G11  21123897.339 8 111006809.737 8      -227.648          48.000
G14  20509735.265 8 107779370.449 8      -401.551          48.000
G22  23122661.552 8 121510378.948 8      2220.797          48.000
G27  24967815.290 8 131206712.397 8     -2795.571          48.000
G31  22038739.528 8 115814333.165 8      3342.771          48.000
G32  20865824.044 8 109650627.733 8     -1850.193          48.000
> 2020 04 04 10 12 11.0000000  0  9      -0.000000000000
G01  22117010.160 8 116225648.982 8      2298.850          48.000
G08  23763396.620 8 124877458.398 8     -2332.331          48.000
G10  22446711.391 8 117958239.049 8     -2038.054          48.000
G11  21123940.717 8 111007037.691 8      -228.244          48.000
G14  20509811.725 8 107779772.251 8      -402.085          48.000
G22  23122238.955 8 121508158.188 8      2220.684          48.000
G27  24968347.260 8 131209507.913 8     -2795.447          48.000
G31  22038103.461 8 115810990.615 8      3342.318          48.000
G32  20866176.159 8 109652478.109 8     -1850.591          48.000
> 2020 04 04 10 12 12.0000000  0  9      -0.000000000000
G01  22116572.736 8 116223350.305 8      2298.491          48.000
G08  23763840.462 8 124879790.797 8     -2332.472          48.000
G10  22447099.231 8 117960277.158 8     -2038.189          48.000
G11  21123984.209 8 111007266.242 8      -228.840          48.000
G14  20509888.287 8 107780174.587 8      -402.618          48.000
G22  23121816.379 8 121505937.541 8      2220.570          48.000
G27  24968879.207 8 131212303.305 8     -2795.322          48.000
G31  22037467.480 8 115807648.517 8      3341.866          48.000
G32  20866528.350 8 109654328.882 8     -1850.988          48.000
> 2020 04 04 10 12 13.0000000  0  9      -0.000000000000
G01  22116135.380 8 116221051.989 8      2298.131          48.000
G08  23764284.330 8 124882123.337 8     -2332.614          48.000
G10  22447487.096 8 117962315.402 8     -2038.323          48.000
G11  21124027.814 8 111007495.388 8      -229.437          48.000
G14  20509964.951 8 107780577.457 8      -403.152          48.000
G22  23121393.825 8 121503717.008 8      2220.456          48.000
G27  24969411.129 8 131215098.573 8     -2795.198          48.000
G31  22036831.586 8 115804306.872 8      3341.413          48.000
G32  20866880.616 8 109656180.053 8     -1851.385          48.000
> 2020 04 04 10 12 14.0000000  0  9      -0.000000000000
G01  22115698.093 8 116218754.031 8      2297.771          48.000
G08  23764728.225 8 124884456.019 8     -2332.756          48.000
G10  22447874.987 8 117964353.780 8     -2038.458          48.000
G11  21124071.532 8 111007725.130 8      -230.033          48.000
G14  20510041.716 8 107780980.860 8      -403.686          48.000
G22  23120971.293 8 121501496.589 8      2220.342          48.000
G27  24969943.028 8 131217893.716 8     -2795.073          48.000
G31  22036195.777 8 115800965.679 8      3340.960          48.000
G32  20867232.958 8 109658031.620 8     -1851.783          48.000
> 2020 04 04 10 12 15.0000000  0  9      -0.000000000000
G01  22115260.874 8 116216456.434 8      2297.411          48.000
G08  23765172.147 8 124886788.842 8     -2332.897          48.000
G10  22448262.903 8 117966392.292 8     -2038.592          48.000
G11  21124115.364 8 111007955.469 8      -230.628          48.000
G14  20510118.583 8 107781384.797 8      -404.220          48.000
G22  23120548.782 8 121499276.284 8      2220.229          48.000
G27  24970474.903 8 131220688.734 8     -2794.949          48.000
G31  22035560.055 8 115797624.940 8      3340.507          48.000
G32  20867585.376 8 109659883.585 8     -1852.180          48.000
> 2020 04 04 10 12 16.0000000  0  9      -0.000000000000
G01  22114823.724 8 116214159.197 8      2297.051          48.000
G08  23765616.096 8 124889121.807 8     -2333.039          48.000
G10  22448650.846 8 117968430.939 8     -2038.727          48.000
G11  21124159.309 8 111008186.403 8      -231.224          48.000
G14  20510195.551 8 107781789.268 8      -404.753          48.000
G22  23120126.293 8 121497056.092 8      2220.115          48.000
G27  24971006.755 8 131223483.628 8     -2794.824          48.000
G31  22034924.419 8 115794284.654 8      3340.054          48.000
G32  20867937.869 8 109661735.947 8     -1852.577          48.000
> 2020 04 04 10 12 17.0000000  0  9      -0.000000000000
G01  22114386.642 8 116211862.319 8      2296.691          48.000
G08  23766060.072 8 124891454.914 8     -2333.180          48.000
G10  22449038.813 8 117970469.720 8     -2038.861          48.000
G11  21124203.368 8 111008417.933 8      -231.820          48.000
G14  20510272.621 8 107782194.272 8      -405.287          48.000
G22  23119703.826 8 121494836.014 8      2220.001          48.000
G27  24971538.583 8 131226278.397 8     -2794.699          48.000
G31  22034288.869 8 115790944.820 8      3339.601          48.000
G32  20868290.437 8 109663588.706 8     -1852.974          48.000
> 2020 04 04 10 12 18.0000000  0  9      -0.000000000000
G01  22113949.629 8 116209565.802 8      2296.331          48.000
G08  23766504.075 8 124893788.161 8     -2333.321          48.000
G10  22449426.806 8 117972508.636 8     -2038.995          48.000
G11  21124247.540 8 111008650.059 8      -232.416          48.000
G14  20510349.792 8 107782599.810 8      -405.820          48.000
G22  23119281.380 8 121492616.050 8      2219.887          48.000
G27  24972070.387 8 131229073.042 8     -2794.574          48.000
G31  22033653.405 8 115787605.441 8      3339.147          48.000
G32  20868643.081 8 109665441.862 8     -1853.370          48.000
> 2020 04 04 10 12 19.0000000  0  9      -0.000000000000
G01  22113512.684 8 116207269.644 8      2295.971          48.000
G08  23766948.105 8 124896121.550 8     -2333.462          48.000
G10  22449814.825 8 117974547.686 8     -2039.130          48.000
G11  21124291.826 8 111008882.781 8      -233.012          48.000
G14  20510427.065 8 107783005.881 8      -406.354          48.000
G22  23118858.956 8 121490396.199 8      2219.774          48.000
G27  24972602.167 8 131231867.561 8     -2794.449          48.000
G31  22033018.028 8 115784266.514 8      3338.694          48.000
G32  20868995.801 8 109667295.414 8     -1853.767          48.000
> 2020 04 04 10 12 20.0000000  0  9      -0.000000000000
G01  22113075.808 8 116204973.847 8      2295.611          48.000
G08  23767392.162 8 124898455.080 8     -2333.604          48.000
G10  22450202.870 8 117976586.871 8     -2039.264          48.000
G11  21124336.225 8 111009116.099 8      -233.608          48.000
G14  20510504.439 8 107783412.486 8      -406.887          48.000
G22  23118436.554 8 121488176.462 8      2219.660          48.000
G27  24973133.924 8 131234661.956 8     -2794.324          48.000
G31  22032382.737 8 115780928.042 8      3338.240          48.000
G32  20869348.596 8 109669149.363 8     -1854.164          48.000
> 2020 04 04 10 12 21.0000000  0  9      -0.000000000000
G01  22112639.000 8 116202678.411 8      2295.251          48.000
G08  23767836.245 8 124900788.751 8     -2333.744          48.000
G10  22450590.940 8 117978626.190 8     -2039.399          48.000
G11  21124380.737 8 111009350.013 8      -234.204          48.000
G14  20510581.915 8 107783819.624 8      -407.420          48.000
G22  23118014.173 8 121485956.839 8      2219.546          48.000
G27  24973665.656 8 131237456.225 8     -2794.199          48.000
G31  22031747.533 8 115777590.023 8      3337.786          48.000
G32  20869701.466 8 109671003.709 8     -1854.560          48.000
> 2020 04 04 10 12 22.0000000  0  9      -0.000000000000
G01  22112202.261 8 116200383.334 8      2294.890          48.000
G08  23768280.356 8 124903122.563 8     -2333.885          48.000
G10  22450979.035 8 117980665.643 8     -2039.533          48.000
G11  21124425.363 8 111009584.523 8      -234.800          48.000
G14  20510659.492 8 107784227.295 8      -407.954          48.000
G22  23117591.814 8 121483737.330 8      2219.432          48.000
G27  24974197.365 8 131240250.369 8     -2794.074          48.000
G31  22031112.414 8 115774252.458 8      3337.332          48.000
G32  20870054.412 8 109672858.451 8     -1854.957          48.000
> 2020 04 04 10 12 23.0000000  0  9      -0.000000000000
G01  22111765.591 8 116198088.618 8      2294.530          48.000
G08  23768724.493 8 124905456.515 8     -2334.026          48.000
G10  22451367.156 8 117982705.231 8     -2039.668          48.000
G11  21124470.102 8 111009819.628 8      -235.395          48.000
G14  20510737.171 8 107784635.500 8      -408.487          48.000
G22  23117169.477 8 121481517.935 8      2219.319          48.000
G27  24974729.050 8 131243044.388 8     -2793.949          48.000
G31  22030477.383 8 115770915.347 8      3336.878          48.000
G32  20870407.434 8 109674713.590 8     -1855.353          48.000
> 2020 04 04 10 12 24.0000000  0  9      -0.000000000000
G01  22111328.989 8 116195794.262 8      2294.169          48.000
G08  23769168.656 8 124907790.609 8     -2334.167          48.000
G10  22451755.303 8 117984744.953 8     -2039.802          48.000
G11  21124514.954 8 111010055.329 8      -235.991          48.000
G14  20510814.951 8 107785044.237 8      -409.020          48.000
G22  23116747.161 8 121479298.653 8      2219.205          48.000
G27  24975260.711 8 131245838.282 8     -2793.824          48.000
G31  22029842.437 8 115767578.690 8      3336.424          48.000
G32  20870760.530 8 109676569.124 8     -1855.749          48.000
> 2020 04 04 10 12 25.0000000  0  9      -0.000000000000
G01  22110892.456 8 116193500.267 8      2293.809          48.000
G08  23769612.847 8 124910124.843 8     -2334.307          48.000
G10  22452143.475 8 117986784.810 8     -2039.936          48.000
G11  21124559.920 8 111010291.626 8      -236.587          48.000
G14  20510892.833 8 107785453.508 8      -409.553          48.000
G22  23116324.867 8 121477079.485 8      2219.091          48.000
G27  24975792.349 8 131248632.051 8     -2793.698          48.000
G31  22029207.578 8 115764242.487 8      3335.969          48.000
G32  20871113.703 8 109678425.055 8     -1856.145          48.000
> 2020 04 04 10 12 26.0000000  0  9      -0.000000000000
G01  22110455.991 8 116191206.632 8      2293.448          48.000
G08  23770057.064 8 124912459.217 8     -2334.448          48.000
G10  22452531.673 8 117988824.801 8     -2040.071          48.000
G11  21124604.999 8 111010528.519 8      -237.183          48.000
G14  20510970.816 8 107785863.311 8      -410.086          48.000
G22  23115902.594 8 121474860.431 8      2218.977          48.000
G27  24976323.962 8 131251425.693 8     -2793.573          48.000
G31  22028572.806 8 115760906.740 8      3335.515          48.000
G32  20871466.950 8 109680281.382 8     -1856.542          48.000
> 2020 04 04 10 12 27.0000000  0  9      -0.000000000000
G01  22110019.595 8 116188913.359 8      2293.087          48.000
G08  23770501.308 8 124914793.732 8     -2334.588          48.000
G10  22452919.897 8 117990864.927 8     -2040.205          48.000
G11  21124650.192 8 111010766.008 8      -237.778          48.000
G14  20511048.900 8 107786273.648 8      -410.619          48.000
G22  23115480.343 8 121472641.490 8      2218.863          48.000
G27  24976855.552 8 131254219.211 8     -2793.447          48.000
G31  22027938.120 8 115757571.446 8      3335.060          48.000
G32  20871820.273 8 109682138.106 8     -1856.937          48.000
> 2020 04 04 10 12 28.0000000  0  9      -0.000000000000
G01  22109583.268 8 116186620.445 8      2292.727          48.000
G08  23770945.579 8 124917128.387 8     -2334.728          48.000
G10  22453308.146 8 117992905.187 8     -2040.340          48.000
G11  21124695.498 8 111011004.092 8      -238.374          48.000
G14  20511127.086 8 107786684.518 8      -411.152          48.000
G22  23115058.114 8 121470422.664 8      2218.750          48.000
G27  24977387.118 8 131257012.602 8     -2793.321          48.000
G31  22027303.520 8 115754236.608 8      3334.605          48.000
G32  20872173.671 8 109683995.225 8     -1857.333          48.000
> 2020 04 04 10 12 29.0000000  0  9      -0.000000000000
G01  22109147.009 8 116184327.893 8      2292.366          48.000
G08  23771389.877 8 124919463.183 8     -2334.869          48.000
G10  22453696.420 8 117994945.581 8     -2040.474          48.000
G11  21124740.917 8 111011242.771 8      -238.970          48.000
G14  20511205.374 8 107787095.920 8      -411.684          48.000
G22  23114635.906 8 121468203.951 8      2218.636          48.000
G27  24977918.659 8 131259805.868 8     -2793.195          48.000
G31  22026669.008 8 115750902.224 8      3334.150          48.000
G32  20872527.145 8 109685852.739 8     -1857.729          48.000
> 2020 04 04 10 12 30.0000000  0  9      -0.000000000000
G01  22108710.819 8 116182035.701 8      2292.005          48.000
G08  23771834.201 8 124921798.118 8     -2335.009          48.000
G10  22454084.721 8 117996986.110 8     -2040.608          48.000
G11  21124786.450 8 111011482.047 8      -239.565          48.000
G14  20511283.762 8 107787507.855 8      -412.217          48.000
G22  23114213.720 8 121465985.352 8      2218.522          48.000
G27  24978450.177 8 131262599.009 8     -2793.070          48.000
G31  22026034.581 8 115747568.295 8      3333.695          48.000
G32  20872880.694 8 109687710.650 8     -1858.125          48.000
> 2020 04 04 10 12 31.0000000  0  9      -0.000000000000
G01  22108274.697 8 116179743.871 8      2291.644          48.000
G08  23772278.552 8 124924133.194 8     -2335.149          48.000
G10  22454473.046 8 117999026.773 8     -2040.743          48.000
G11  21124832.096 8 111011721.918 8      -240.161          48.000
G14  20511362.252 8 107787920.323 8      -412.750          48.000
G22  23113791.556 8 121463766.867 8      2218.408          48.000
G27  24978981.671 8 131265392.023 8     -2792.944          48.000
G31  22025400.242 8 115744234.822 8      3333.240          48.000
G32  20873234.318 8 109689568.956 8     -1858.520          48.000
> 2020 04 04 10 12 32.0000000  0  9      -0.000000000000
G01  22107838.645 8 116177452.401 8      2291.283          48.000
G08  23772722.929 8 124926468.410 8     -2335.289          48.000
G10  22454861.398 8 118001067.570 8     -2040.877          48.000
G11  21124877.855 8 111011962.385 8      -240.757          48.000
G14  20511440.844 8 107788333.323 8      -413.282          48.000
G22  23113369.414 8 121461548.495 8      2218.294          48.000
G27  24979513.141 8 131268184.911 8     -2792.818          48.000
G31  22024765.989 8 115740901.804 8      3332.785          48.000
G32  20873588.017 8 109691427.658 8     -1858.916          48.000
> 2020 04 04 10 12 33.0000000  0  9      -0.000000000000
G01  22107402.661 8 116175161.293 8      2290.922          48.000
G08  23773167.333 8 124928803.765 8     -2335.428          48.000
G10  22455249.774 8 118003108.502 8     -2041.011          48.000
G11  21124923.728 8 111012203.447 8      -241.352          48.000
G14  20511519.536 8 107788746.856 8      -413.815          48.000
G22  23112947.293 8 121459330.238 8      2218.181          48.000
G27  24980044.587 8 131270977.673 8     -2792.691          48.000
G31  22024131.823 8 115737569.241 8      3332.329          48.000
G32  20873941.792 8 109693286.755 8     -1859.311          48.000
> 2020 04 04 10 12 34.0000000  0  9      -0.000000000000
G01  22106966.746 8 116172870.545 8      2290.561          48.000
G08  23773611.764 8 124931139.260 8     -2335.568          48.000
G10  22455638.177 8 118005149.568 8     -2041.146          48.000
G11  21124969.714 8 111012445.105 8      -241.948          48.000
G14  20511598.331 8 107789160.922 8      -414.348          48.000
G22  23112525.193 8 121457112.094 8      2218.067          48.000
G27  24980576.009 8 131273770.309 8     -2792.565          48.000
G31  22023497.743 8 115734237.134 8      3331.874          48.000
G32  20874295.642 8 109695146.247 8     -1859.706          48.000
> 2020 04 04 10 12 35.0000000  0  9      -0.000000000000
G01  22106530.899 8 116170580.159 8      2290.199          48.000
G08  23774056.221 8 124933474.895 8     -2335.708          48.000
G10  22456026.605 8 118007190.768 8     -2041.280          48.000
G11  21125015.813 8 111012687.358 8      -242.543          48.000
G14  20511677.226 8 107789575.519 8      -414.880          48.000
G22  23112103.116 8 121454894.064 8      2217.953          48.000
G27  24981107.407 8 131276562.819 8     -2792.439          48.000
G31  22022863.750 8 115730905.483 8      3331.418          48.000
G32  20874649.567 8 109697006.135 8     -1860.102          48.000
> 2020 04 04 10 12 36.0000000  0  9      -0.000000000000
G01  22106095.121 8 116168290.134 8      2289.838          48.000
G08  23774500.704 8 124935810.669 8     -2335.847          48.000
G10  22456415.058 8 118009232.103 8     -2041.414          48.000
G11  21125062.026 8 111012930.207 8      -243.139          48.000
G14  20511756.223 8 107789990.650 8      -415.412          48.000
G22  23111681.060 8 121452676.148 8      2217.839          48.000
G27  24981638.780 8 131279355.203 8     -2792.313          48.000
G31  22022229.844 8 115727574.287 8      3330.962          48.000
G32  20875003.567 8 109698866.418 8     -1860.497          48.000
> 2020 04 04 10 12 37.0000000  0  9      -0.000000000000
G01  22105659.412 8 116166000.470 8      2289.477          48.000
G08  23774945.215 8 124938146.583 8     -2335.987          48.000
G10  22456803.538 8 118011273.572 8     -2041.549          48.000
G11  21125108.352 8 111013173.652 8      -243.734          48.000
G14  20511835.321 8 107790406.312 8      -415.945          48.000
G22  23111259.026 8 121450458.346 8      2217.725          48.000
G27  24982170.130 8 131282147.460 8     -2792.186          48.000
G31  22021596.025 8 115724243.548 8      3330.506          48.000
G32  20875357.643 8 109700727.095 8     -1860.892          48.000
> 2020 04 04 10 12 38.0000000  0  9      -0.000000000000
G01  22105223.772 8 116163711.168 8      2289.115          48.000
G08  23775389.752 8 124940482.636 8     -2336.126          48.000
G10  22457192.042 8 118013315.175 8     -2041.683          48.000
G11  21125154.791 8 111013417.692 8      -244.330          48.000
G14  20511914.520 8 107790822.507 8      -416.477          48.000
G22  23110837.013 8 121448240.657 8      2217.612          48.000
G27  24982701.456 8 131284939.591 8     -2792.060          48.000
G31  22020962.292 8 115720913.264 8      3330.049          48.000
G32  20875711.793 8 109702588.168 8     -1861.287          48.000
> 2020 04 04 10 12 39.0000000  0  9      -0.000000000000
G01  22104788.201 8 116161422.228 8      2288.754          48.000
G08  23775834.315 8 124942818.828 8     -2336.265          48.000
G10  22457580.572 8 118015356.913 8     -2041.817          48.000
G11  21125201.344 8 111013662.327 8      -244.925          48.000
G14  20511993.820 8 107791239.234 8      -417.009          48.000
G22  23110415.022 8 121446023.082 8      2217.498          48.000
G27  24983232.757 8 131287731.595 8     -2791.933          48.000
G31  22020328.646 8 115717583.437 8      3329.593          48.000
G32  20876066.019 8 109704449.636 8     -1861.682          48.000
> 2020 04 04 10 12 40.0000000  0  9      -0.000000000000
G01  22104352.698 8 116159133.648 8      2288.392          48.000
G08  23776278.905 8 124945155.160 8     -2336.404          48.000
G10  22457969.128 8 118017398.785 8     -2041.952          48.000
G11  21125248.009 8 111013907.558 8      -245.521          48.000
G14  20512073.222 8 107791656.494 8      -417.541          48.000
G22  23109993.053 8 121443805.622 8      2217.384          48.000
G27  24983764.035 8 131290523.472 8     -2791.806          48.000
G31  22019695.087 8 115714254.067 8      3329.137          48.000
G32  20876420.320 8 109706311.498 8     -1862.076          48.000
> 2020 04 04 10 12 41.0000000  0  9      -0.000000000000
G01  22103917.264 8 116156845.431 8      2288.031          48.000
G08  23776723.521 8 124947491.631 8     -2336.543          48.000
G10  22458357.710 8 118019440.791 8     -2042.086          48.000
G11  21125294.789 8 111014153.384 8      -246.116          48.000
G14  20512152.725 8 107792074.285 8      -418.073          48.000
G22  23109571.105 8 121441588.275 8      2217.270          48.000
G27  24984295.288 8 131293315.223 8     -2791.679          48.000
G31  22019061.615 8 115710925.153 8      3328.680          48.000
G32  20876774.696 8 109708173.755 8     -1862.471          48.000
> 2020 04 04 10 12 42.0000000  0  9      -0.000000000000
G01  22103481.899 8 116154557.575 8      2287.669          48.000
G08  23777168.163 8 124949828.240 8     -2336.682          48.000
G10  22458746.317 8 118021482.932 8     -2042.220          48.000
G11  21125341.681 8 111014399.806 8      -246.712          48.000
G14  20512232.330 8 107792492.608 8      -418.605          48.000
G22  23109149.179 8 121439371.041 8      2217.156          48.000
G27  24984826.518 8 131296106.847 8     -2791.553          48.000
G31  22018428.230 8 115707596.696 8      3328.223          48.000
G32  20877129.147 8 109710036.407 8     -1862.865          48.000
> 2020 04 04 10 12 43.0000000  0  9      -0.000000000000
G01  22103046.603 8 116152270.081 8      2287.307          48.000
G08  23777612.833 8 124952164.988 8     -2336.821          48.000
G10  22459134.949 8 118023525.207 8     -2042.354          48.000
G11  21125388.687 8 111014646.823 8      -247.307          48.000
G14  20512312.035 8 107792911.464 8      -419.137          48.000
G22  23108727.275 8 121437153.922 8      2217.042          48.000
G27  24985357.723 8 131298898.344 8     -2791.426          48.000
G31  22017794.932 8 115704268.695 8      3327.766          48.000
G32  20877483.673 8 109711899.453 8     -1863.260          48.000
> 2020 04 04 10 12 44.0000000  0  9      -0.000000000000
G01  22102611.376 8 116149982.948 8      2286.945          48.000
G08  23778057.528 8 124954501.876 8     -2336.960          48.000
G10  22459523.607 8 118025567.616 8     -2042.489          48.000
G11  21125435.806 8 111014894.435 8      -247.902          48.000
G14  20512391.842 8 107793330.851 8      -419.669          48.000
G22  23108305.392 8 121434936.917 8      2216.928          48.000
G27  24985888.904 8 131301689.714 8     -2791.299          48.000
G31  22017161.721 8 115700941.152 8      3327.309          48.000
G32  20877838.275 8 109713762.894 8     -1863.654          48.000
> 2020 04 04 10 12 45.0000000  0  9      -0.000000000000
G01  22102176.217 8 116147696.178 8      2286.583          48.000
G08  23778502.250 8 124956838.901 8     -2337.098          48.000
G10  22459912.291 8 118027610.159 8     -2042.623          48.000
G11  21125483.038 8 111015142.643 8      -248.498          48.000
G14  20512471.750 8 107793750.770 8      -420.201          48.000
G22  23107883.531 8 121432720.025 8      2216.815          48.000
G27  24986420.061 8 131304480.957 8     -2791.171          48.000
G31  22016528.597 8 115697614.066 8      3326.852          48.000
G32  20878192.951 8 109715626.728 8     -1864.048          48.000
> 2020 04 04 10 12 46.0000000  0  9      -0.000000000000
G01  22101741.128 8 116145409.769 8      2286.221          48.000
G08  23778946.998 8 124959176.066 8     -2337.237          48.000
G10  22460301.000 8 118029652.837 8     -2042.757          48.000
G11  21125530.384 8 111015391.445 8      -249.093          48.000
G14  20512551.759 8 107794171.220 8      -420.732          48.000
G22  23107461.692 8 121430503.248 8      2216.701          48.000
G27  24986951.193 8 131307272.073 8     -2791.044          48.000
G31  22015895.560 8 115694287.437 8      3326.395          48.000
G32  20878547.702 8 109717490.957 8     -1864.443          48.000
> 2020 04 04 10 12 47.0000000  0  9      -0.000000000000
G01  22101306.107 8 116143123.723 8      2285.859          48.000
G08  23779391.773 8 124961513.369 8     -2337.375          48.000
G10  22460689.734 8 118031695.649 8     -2042.891          48.000
G11  21125577.843 8 111015640.844 8      -249.688          48.000
G14  20512631.869 8 107794592.203 8      -421.264          48.000
G22  23107039.874 8 121428286.584 8      2216.587          48.000
G27  24987482.302 8 131310063.061 8     -2790.917          48.000
G31  22015262.610 8 115690961.265 8      3325.937          48.000
G32  20878902.528 8 109719355.580 8     -1864.837          48.000
> 2020 04 04 10 12 48.0000000  0  9      -0.000000000000
G01  22100871.155 8 116140838.038 8      2285.497          48.000
G08  23779836.574 8 124963850.810 8     -2337.514          48.000
G10  22461078.494 8 118033738.595 8     -2043.026          48.000
G11  21125625.415 8 111015890.837 8      -250.283          48.000
G14  20512712.081 8 107795013.717 8      -421.796          48.000
G22  23106618.078 8 121426070.034 8      2216.473          48.000
G27  24988013.386 8 131312853.922 8     -2790.790          48.000
G31  22014629.747 8 115687635.551 8      3325.479          48.000
G32  20879257.429 8 109721220.597 8     -1865.231          48.000
> 2020 04 04 10 12 49.0000000  0  9      -0.000000000000
G01  22100436.272 8 116138552.716 8      2285.135          48.000
G08  23780281.401 8 124966188.389 8     -2337.652          48.000
G10  22461467.280 8 118035781.675 8     -2043.160          48.000
G11  21125673.101 8 111016141.426 8      -250.879          48.000
G14  20512792.393 8 107795435.763 8      -422.327          48.000
G22  23106196.304 8 121423853.598 8      2216.359          48.000
G27  24988544.446 8 131315644.656 8     -2790.662          48.000
G31  22013996.971 8 115684310.295 8      3325.022          48.000
G32  20879612.406 8 109723086.008 8     -1865.624          48.000
> 2020 04 04 10 12 50.0000000  0  9      -0.000000000000
G01  22100001.458 8 116136267.756 8      2284.773          48.000
G08  23780726.254 8 124968526.107 8     -2337.790          48.000
G10  22461856.091 8 118037824.890 8     -2043.294          48.000
G11  21125720.899 8 111016392.610 8      -251.474          48.000
G14  20512872.807 8 107795858.340 8      -422.859          48.000
G22  23105774.551 8 121421637.275 8      2216.245          48.000
G27  24989075.481 8 131318435.263 8     -2790.535          48.000
G31  22013364.282 8 115680985.497 8      3324.564          48.000
G32  20879967.457 8 109724951.813 8     -1866.018          48.000
> 2020 04 04 10 12 51.0000000  0  9      -0.000000000000
G01  22099566.713 8 116133983.158 8      2284.410          48.000
G08  23781171.134 8 124970863.963 8     -2337.928          48.000
G10  22462244.928 8 118039868.239 8     -2043.428          48.000
G11  21125768.811 8 111016644.389 8      -252.069          48.000
G14  20512953.322 8 107796281.448 8      -423.390          48.000
G22  23105352.820 8 121419421.067 8      2216.131          48.000
G27  24989606.493 8 131321225.742 8     -2790.407          48.000
G31  22012731.680 8 115677661.156 8      3324.106          48.000
G32  20880322.583 8 109726818.012 8     -1866.412          48.000
> 2020 04 04 10 12 52.0000000  0  9      -0.000000000000
G01  22099132.037 8 116131698.923 8      2284.048          48.000
G08  23781616.040 8 124973201.957 8     -2338.066          48.000
G10  22462633.791 8 118041911.722 8     -2043.563          48.000
G11  21125816.836 8 111016896.763 8      -252.664          48.000
G14  20513033.938 8 107796705.088 8      -423.921          48.000
G22  23104931.111 8 121417204.973 8      2216.017          48.000
G27  24990137.480 8 131324016.093 8     -2790.279          48.000
G31  22012099.166 8 115674337.274 8      3323.647          48.000
G32  20880677.784 8 109728684.604 8     -1866.805          48.000
> 2020 04 04 10 12 53.0000000  0  9      -0.000000000000
G01  22098697.430 8 116129415.050 8      2283.686          48.000
G08  23782060.973 8 124975540.088 8     -2338.204          48.000
G10  22463022.679 8 118043955.339 8     -2043.697          48.000
G11  21125864.975 8 111017149.732 8      -253.259          48.000
G14  20513114.655 8 107797129.259 8      -424.453          48.000
G22  23104509.423 8 121414988.992 8      2215.903          48.000
G27  24990668.442 8 131326806.316 8     -2790.151          48.000
G31  22011466.739 8 115671013.850 8      3323.189          48.000
G32  20881033.059 8 109730551.589 8     -1867.199          48.000
> 2020 04 04 10 12 54.0000000  0  9      -0.000000000000
G01  22098262.892 8 116127131.539 8      2283.323          48.000
G08  23782505.931 8 124977878.358 8     -2338.341          48.000
G10  22463411.592 8 118045999.090 8     -2043.831          48.000
G11  21125913.227 8 111017403.297 8      -253.854          48.000
G14  20513195.474 8 107797553.962 8      -424.984          48.000
G22  23104087.757 8 121412773.126 8      2215.790          48.000
G27  24991199.381 8 131329596.412 8     -2790.024          48.000
G31  22010834.399 8 115667690.885 8      3322.731          48.000
G32  20881388.410 8 109732418.968 8     -1867.592          48.000
> 2020 04 04 10 12 55.0000000  0  9      -0.000000000000
G01  22097828.423 8 116124848.391 8      2282.960          48.000
G08  23782950.916 8 124980216.765 8     -2338.479          48.000
G10  22463800.531 8 118048042.976 8     -2043.965          48.000
G11  21125961.592 8 111017657.457 8      -254.449          48.000
G14  20513276.393 8 107797979.196 8      -425.515          48.000
G22  23103666.113 8 121410557.373 8      2215.676          48.000
G27  24991730.295 8 131332386.379 8     -2789.896          48.000
G31  22010202.146 8 115664368.377 8      3322.272          48.000
G32  20881743.836 8 109734286.741 8     -1867.986          48.000
> 2020 04 04 10 12 56.0000000  0  9      -0.000000000000
G01  22097394.023 8 116122565.606 8      2282.598          48.000
G08  23783395.927 8 124982555.310 8     -2338.617          48.000
G10  22464189.496 8 118050086.996 8     -2044.099          48.000
G11  21126010.070 8 111017912.211 8      -255.044          48.000
G14  20513357.413 8 107798404.961 8      -426.046          48.000
G22  23103244.490 8 121408341.734 8      2215.562          48.000
G27  24992261.185 8 131335176.219 8     -2789.768          48.000
G31  22009569.980 8 115661046.329 8      3321.813          48.000
G32  20882099.336 8 109736154.906 8     -1868.379          48.000
> 2020 04 04 10 12 57.0000000  0  9      -0.000000000000
G01  22096959.692 8 116120283.183 8      2282.235          48.000
G08  23783840.964 8 124984893.992 8     -2338.754          48.000
G10  22464578.486 8 118052131.150 8     -2044.234          48.000
G11  21126058.661 8 111018167.561 8      -255.639          48.000
G14  20513438.535 8 107798831.256 8      -426.577          48.000
G22  23102822.890 8 121406126.209 8      2215.448          48.000
G27  24992792.050 8 131337965.931 8     -2789.639          48.000
G31  22008937.902 8 115657724.740 8      3321.354          48.000
G32  20882454.911 8 109738023.465 8     -1868.772          48.000
> 2020 04 04 10 12 58.0000000  0  9      -0.000000000000
G01  22096525.430 8 116118001.123 8      2281.872          48.000
G08  23784286.027 8 124987232.811 8     -2338.891          48.000
G10  22464967.501 8 118054175.438 8     -2044.368          48.000
G11  21126107.366 8 111018423.506 8      -256.235          48.000
G14  20513519.757 8 107799258.083 8      -427.108          48.000
G22  23102401.310 8 121403910.798 8      2215.334          48.000
G27  24993322.891 8 131340755.514 8     -2789.511          48.000
G31  22008305.911 8 115654403.609 8      3320.895          48.000
G32  20882810.561 8 109739892.417 8     -1869.165          48.000
> 2020 04 04 10 12 59.0000000  0  9      -0.000000000000
G01  22096091.237 8 116115719.426 8      2281.509          48.000
G08  23784731.116 8 124989571.768 8     -2339.029          48.000
G10  22465356.542 8 118056219.860 8     -2044.502          48.000
G11  21126156.184 8 111018680.045 8      -256.829          48.000
G14  20513601.081 8 107799685.441 8      -427.639          48.000
G22  23101979.753 8 121401695.501 8      2215.220          48.000
G27  24993853.708 8 131343544.970 8     -2789.383          48.000
G31  22007674.008 8 115651082.938 8      3320.436          48.000
G32  20883166.286 8 109741761.762 8     -1869.558          48.000
> 2020 04 04 10 13  0.0000000  0  9      -0.000000000000
G01  22095657.113 8 116113438.092 8      2281.147          48.000
G08  23785176.232 8 124991910.862 8     -2339.166          48.000
G10  22465745.609 8 118058264.417 8     -2044.636          48.000
G11  21126205.115 8 111018937.180 8      -257.424          48.000
G14  20513682.505 8 107800113.330 8      -428.170          48.000
G22  23101558.217 8 121399480.318 8      2215.106          48.000
G27  24994384.500 8 131346334.297 8     -2789.255          48.000
G31  22007042.192 8 115647762.726 8      3319.977          48.000
G32  20883522.085 8 109743631.499 8     -1869.951          48.000
> 2020 04 04 10 13  1.0000000  0  9      -0.000000000000
G01  22095223.058 8 116111157.121 8      2280.784          48.000
G08  23785621.374 8 124994250.094 8     -2339.303          48.000
G10  22466134.701 8 118060309.107 8     -2044.770          48.000
G11  21126254.159 8 111019194.910 8      -258.019          48.000
G14  20513764.031 8 107800541.749 8      -428.701          48.000
G22  23101136.703 8 121397265.249 8      2214.992          48.000
G27  24994915.268 8 131349123.495 8     -2789.126          48.000
G31  22006410.463 8 115644442.973 8      3319.517          48.000
G32  20883877.960 8 109745501.630 8     -1870.343          48.000
> 2020 04 04 10 13  2.0000000  0  9      -0.000000000000
G01  22094789.072 8 116108876.513 8      2280.420          48.000
G08  23786066.541 8 124996589.462 8     -2339.440          48.000
G10  22466523.819 8 118062353.932 8     -2044.904          48.000
G11  21126303.317 8 111019453.235 8      -258.614          48.000
G14  20513845.657 8 107800970.700 8      -429.232          48.000
G22  23100715.210 8 121395050.294 8      2214.878          48.000
G27  24995446.011 8 131351912.565 8     -2788.998          48.000
G31  22005778.822 8 115641123.680 8      3319.058          48.000
G32  20884233.909 8 109747372.153 8     -1870.736          48.000
> 2020 04 04 10 13  3.0000000  0  9      -0.000000000000
G01  22094355.155 8 116106596.268 8      2280.057          48.000
G08  23786511.735 8 124998928.967 8     -2339.577          48.000
G10  22466912.962 8 118064398.891 8     -2045.038          48.000
G11  21126352.588 8 111019712.154 8      -259.209          48.000
G14  20513927.385 8 107801400.181 8      -429.762          48.000
G22  23100293.739 8 121392835.452 8      2214.764          48.000
G27  24995976.730 8 131354701.507 8     -2788.869          48.000
G31  22005147.268 8 115637804.846 8      3318.598          48.000
G32  20884589.932 8 109749243.068 8     -1871.128          48.000
> 2020 04 04 10 13  4.0000000  0  9      -0.000000000000
G01  22093921.308 8 116104316.386 8      2279.694          48.000
G08  23786956.955 8 125001268.609 8     -2339.714          48.000
G10  22467302.131 8 118066443.984 8     -2045.173          48.000
G11  21126401.972 8 111019971.669 8      -259.804          48.000
G14  20514009.213 8 107801830.192 8      -430.293          48.000
G22  23099872.290 8 121390620.725 8      2214.650          48.000
G27  24996507.424 8 131357490.320 8     -2788.740          48.000
G31  22004515.802 8 115634486.472 8      3318.138          48.000
G32  20884946.031 8 109751114.376 8     -1871.521          48.000
> 2020 04 04 10 13  5.0000000  0  9      -0.000000000000
G01  22093487.529 8 116102036.867 8      2279.331          48.000
G08  23787402.200 8 125003608.388 8     -2339.850          48.000
G10  22467691.325 8 118068489.211 8     -2045.307          48.000
G11  21126451.469 8 111020231.778 8      -260.399          48.000
G14  20514091.143 8 107802260.734 8      -430.823          48.000
G22  23099450.863 8 121388406.112 8      2214.536          48.000
G27  24997038.094 8 131360279.004 8     -2788.611          48.000
G31  22003884.423 8 115631168.558 8      3317.678          48.000
G32  20885302.204 8 109752986.077 8     -1871.913          48.000
> 2020 04 04 10 13  6.0000000  0  9      -0.000000000000
G01  22093053.820 8 116099757.712 8      2278.968          48.000
G08  23787847.472 8 125005948.303 8     -2339.987          48.000
G10  22468080.545 8 118070534.573 8     -2045.441          48.000
G11  21126501.079 8 111020492.482 8      -260.994          48.000
G14  20514173.173 8 107802691.807 8      -431.354          48.000
G22  23099029.457 8 121386191.612 8      2214.422          48.000
G27  24997568.739 8 131363067.559 8     -2788.483          48.000
G31  22003253.132 8 115627851.105 8      3317.218          48.000
G32  20885658.451 8 109754858.170 8     -1872.305          48.000
> 2020 04 04 10 13  7.0000000  0  9      -0.000000000000
G01  22092620.180 8 116097478.920 8      2278.604          48.000
G08  23788292.770 8 125008288.355 8     -2340.123          48.000
G10  22468469.790 8 118072580.068 8     -2045.575          48.000
G11  21126550.803 8 111020753.781 8      -261.589          48.000
G14  20514255.305 8 107803123.410 8      -431.884          48.000
G22  23098608.073 8 121383977.227 8      2214.308          48.000
G27  24998099.360 8 131365855.985 8     -2788.354          48.000
G31  22002621.929 8 115624534.111 8      3316.758          48.000
G32  20886014.774 8 109756730.655 8     -1872.698          48.000
> 2020 04 04 10 13  8.0000000  0  9      -0.000000000000
G01  22092186.609 8 116095200.491 8      2278.241          48.000
G08  23788738.093 8 125010628.543 8     -2340.260          48.000
G10  22468859.061 8 118074625.698 8     -2045.709          48.000
G11  21126600.640 8 111021015.675 8      -262.183          48.000
G14  20514337.537 8 107803555.544 8      -432.415          48.000
G22  23098186.710 8 121381762.955 8      2214.194          48.000
G27  24998629.957 8 131368644.283 8     -2788.225          48.000
G31  22001990.813 8 115621217.578 8      3316.297          48.000
G32  20886371.170 8 109758603.532 8     -1873.090          48.000
> 2020 04 04 10 13  9.0000000  0  9      -0.000000000000
G01  22091753.107 8 116092922.426 8      2277.877          48.000
G08  23789183.443 8 125012968.868 8     -2340.396          48.000
G10  22469248.357 8 118076671.461 8     -2045.843          48.000
G11  21126650.590 8 111021278.163 8      -262.778          48.000
G14  20514419.870 8 107803988.207 8      -432.945          48.000
G22  23097765.370 8 121379548.798 8      2214.080          48.000
G27  24999160.528 8 131371432.451 8     -2788.095          48.000
G31  22001359.784 8 115617901.506 8      3315.837          48.000
G32  20886727.642 8 109760476.801 8     -1873.482          48.000
> 2020 04 04 10 13 10.0000000  0  9      -0.000000000000
G01  22091319.674 8 116090644.725 8      2277.514          48.000
G08  23789628.819 8 125015309.329 8     -2340.532          48.000
G10  22469637.679 8 118078717.359 8     -2045.977          48.000
G11  21126700.653 8 111021541.246 8      -263.373          48.000
G14  20514502.304 8 107804421.401 8      -433.475          48.000
G22  23097344.051 8 121377334.754 8      2213.966          48.000
G27  24999691.075 8 131374220.490 8     -2787.966          48.000
G31  22000728.844 8 115614585.894 8      3315.376          48.000
G32  20887084.188 8 109762350.462 8     -1873.873          48.000
> 2020 04 04 10 13 11.0000000  0  9      -0.000000000000
G01  22090886.311 8 116088367.387 8      2277.150          48.000
G08  23790074.220 8 125017649.925 8     -2340.668          48.000
G10  22470027.027 8 118080763.391 8     -2046.111          48.000
G11  21126750.829 8 111021804.924 8      -263.968          48.000
G14  20514584.839 8 107804855.126 8      -434.005          48.000
G22  23096922.753 8 121375120.824 8      2213.852          48.000
G27  25000221.598 8 131377008.400 8     -2787.837          48.000
G31  22000097.991 8 115611270.743 8      3314.915          48.000
G32  20887440.809 8 109764224.514 8     -1874.265          48.000
> 2020 04 04 10 13 12.0000000  0  9      -0.000000000000
G01  22090453.016 8 116086090.413 8      2276.786          48.000
G08  23790519.647 8 125019990.658 8     -2340.804          48.000
G10  22470416.400 8 118082809.557 8     -2046.245          48.000
G11  21126801.118 8 111022069.197 8      -264.562          48.000
G14  20514667.475 8 107805289.380 8      -434.535          48.000
G22  23096501.478 8 121372907.009 8      2213.739          48.000
G27  25000752.096 8 131379796.181 8     -2787.708          48.000
G31  21999467.225 8 115607956.052 8      3314.454          48.000
G32  20887797.504 8 109766098.959 8     -1874.657          48.000
> 2020 04 04 10 13 13.0000000  0  9      -0.000000000000
G01  22090019.791 8 116083813.802 8      2276.422          48.000
G08  23790965.101 8 125022331.527 8     -2340.940          48.000
G10  22470805.798 8 118084855.857 8     -2046.379          48.000
G11  21126851.521 8 111022334.065 8      -265.157          48.000
G14  20514750.212 8 107805724.164 8      -435.065          48.000
G22  23096080.224 8 121370693.307 8      2213.625          48.000
G27  25001282.569 8 131382583.832 8     -2787.578          48.000
G31  21998836.548 8 115604641.823 8      3313.993          48.000
G32  20888154.274 8 109767973.795 8     -1875.048          48.000
> 2020 04 04 10 13 14.0000000  0  9      -0.000000000000
G01  22089586.635 8 116081537.556 8      2276.058          48.000
G08  23791410.580 8 125024672.532 8     -2341.076          48.000
G10  22471195.222 8 118086902.291 8     -2046.514          48.000
G11  21126902.037 8 111022599.527 8      -265.752          48.000
G14  20514833.049 8 107806159.478 8      -435.595          48.000
G22  23095658.991 8 121368479.720 8      2213.511          48.000
G27  25001813.018 8 131385371.354 8     -2787.449          48.000
G31  21998205.958 8 115601328.055 8      3313.532          48.000
G32  20888511.118 8 109769849.022 8     -1875.440          48.000
> 2020 04 04 10 13 15.0000000  0  9      -0.000000000000
G01  22089153.549 8 116079261.673 8      2275.694          48.000
G08  23791856.084 8 125027013.673 8     -2341.212          48.000
G10  22471584.671 8 118088948.859 8     -2046.648          48.000
G11  21126952.666 8 111022865.583 8      -266.346          48.000
G14  20514915.988 8 107806595.323 8      -436.125          48.000
G22  23095237.781 8 121366266.246 8      2213.397          48.000
G27  25002343.442 8 131388158.746 8     -2787.319          48.000
G31  21997575.456 8 115598014.749 8      3313.070          48.000
G32  20888868.036 8 109771724.641 8     -1875.831          48.000
> 2020 04 04 10 13 16.0000000  0  9      -0.000000000000
G01  22088720.532 8 116076986.155 8      2275.330          48.000
G08  23792301.615 8 125029354.949 8     -2341.347          48.000
G10  22471974.146 8 118090995.561 8     -2046.782          48.000
G11  21127003.408 8 111023132.235 8      -266.941          48.000
G14  20514999.027 8 107807031.697 8      -436.655          48.000
G22  23094816.592 8 121364052.886 8      2213.283          48.000
G27  25002873.841 8 131390946.008 8     -2787.189          48.000
G31  21996945.042 8 115594701.904 8      3312.609          48.000
G32  20889225.030 8 109773600.652 8     -1876.223          48.000
> 2020 04 04 10 13 17.0000000  0  9      -0.000000000000
G01  22088287.584 8 116074711.000 8      2274.966          48.000
G08  23792747.172 8 125031696.361 8     -2341.483          48.000
G10  22472363.647 8 118093042.397 8     -2046.916          48.000
G11  21127054.263 8 111023399.481 8      -267.535          48.000
G14  20515082.167 8 107807468.601 8      -437.185          48.000
G22  23094395.425 8 121361839.641 8      2213.169          48.000
G27  25003404.216 8 131393733.141 8     -2787.059          48.000
G31  21996314.716 8 115591389.520 8      3312.147          48.000
G32  20889582.097 8 109775477.053 8     -1876.614          48.000
> 2020 04 04 10 13 18.0000000  0  9      -0.000000000000
G01  22087854.705 8 116072436.210 8      2274.602          48.000
G08  23793192.754 8 125034037.908 8     -2341.618          48.000
G10  22472753.173 8 118095089.368 8     -2047.050          48.000
G11  21127105.231 8 111023667.321 8      -268.130          48.000
G14  20515165.408 8 107807906.034 8      -437.714          48.000
G22  23093974.279 8 121359626.509 8      2213.054          48.000
G27  25003934.566 8 131396520.144 8     -2786.930          48.000
G31  21995684.477 8 115588077.599 8      3311.685          48.000
G32  20889939.239 8 109777353.846 8     -1877.005          48.000
> 2020 04 04 10 13 19.0000000  0  9      -0.000000000000
G01  22087421.895 8 116070161.783 8      2274.238          48.000
G08  23793638.362 8 125036379.590 8     -2341.753          48.000
G10  22473142.724 8 118097136.472 8     -2047.184          48.000
G11  21127156.313 8 111023935.756 8      -268.725          48.000
G14  20515248.750 8 107808343.998 8      -438.244          48.000
G22  23093553.155 8 121357413.491 8      2212.940          48.000
G27  25004464.891 8 131399307.017 8     -2786.800          48.000
G31  21995054.327 8 115584766.139 8      3311.223          48.000
G32  20890296.456 8 109779231.030 8     -1877.396          48.000
> 2020 04 04 10 13 20.0000000  0  9      -0.000000000000
G01  22086989.155 8 116067887.721 8      2273.874          48.000
G08  23794083.996 8 125038721.408 8     -2341.889          48.000
G10  22473532.301 8 118099183.710 8     -2047.318          48.000
G11  21127207.507 8 111024204.785 8      -269.319          48.000
G14  20515332.192 8 107808782.491 8      -438.774          48.000
G22  23093132.053 8 121355200.588 8      2212.826          48.000
G27  25004995.191 8 131402093.760 8     -2786.670          48.000
G31  21994424.264 8 115581455.141 8      3310.761          48.000
G32  20890653.747 8 109781108.605 8     -1877.787          48.000
> 2020 04 04 10 13 21.0000000  0  9      -0.000000000000
G01  22086556.484 8 116065614.023 8      2273.509          48.000
G08  23794529.655 8 125041063.361 8     -2342.024          48.000
G10  22473921.904 8 118101231.082 8     -2047.452          48.000
G11  21127258.815 8 111024474.409 8      -269.914          48.000
G14  20515415.735 8 107809221.513 8      -439.303          48.000
G22  23092710.973 8 121352987.798 8      2212.712          48.000
G27  25005525.467 8 131404880.373 8     -2786.539          48.000
G31  21993794.289 8 115578144.606 8      3310.299          48.000
G32  20891011.112 8 109782986.570 8     -1878.178          48.000
> 2020 04 04 10 13 22.0000000  0  9      -0.000000000000
G01  22086123.883 8 116063340.690 8      2273.145          48.000
G08  23794975.340 8 125043405.449 8     -2342.159          48.000
G10  22474311.532 8 118103278.589 8     -2047.586          48.000
G11  21127310.236 8 111024744.628 8      -270.508          48.000
G14  20515499.379 8 107809661.065 8      -439.833          48.000
G22  23092289.914 8 121350775.123 8      2212.598          48.000
G27  25006055.718 8 131407666.856 8     -2786.409          48.000
G31  21993164.403 8 115574834.533 8      3309.836          48.000
G32  20891368.551 8 109784864.926 8     -1878.568          48.000
> 2020 04 04 10 13 23.0000000  0  9      -0.000000000000
G01  22085691.351 8 116061067.721 8      2272.780          48.000
G08  23795421.051 8 125045747.672 8     -2342.294          48.000
G10  22474701.185 8 118105326.229 8     -2047.720          48.000
G11  21127361.770 8 111025015.441 8      -271.102          48.000
G14  20515583.124 8 107810101.147 8      -440.362          48.000
G22  23091868.877 8 121348562.561 8      2212.484          48.000
G27  25006585.944 8 131410453.209 8     -2786.279          48.000
G31  21992534.604 8 115571524.922 8      3309.374          48.000
G32  20891726.065 8 109786743.673 8     -1878.959          48.000
> 2020 04 04 10 13 24.0000000  0  9      -0.000000000000
G01  22085258.888 8 116058795.117 8      2272.416          48.000
G08  23795866.788 8 125048090.030 8     -2342.429          48.000
G10  22475090.864 8 118107374.003 8     -2047.854          48.000
G11  21127413.417 8 111025286.848 8      -271.697          48.000
G14  20515666.970 8 107810541.757 8      -440.891          48.000
G22  23091447.862 8 121346350.114 8      2212.370          48.000
G27  25007116.146 8 131413239.431 8     -2786.149          48.000
G31  21991904.893 8 115568215.774 8      3308.911          48.000
G32  20892083.654 8 109788622.811 8     -1879.349          48.000
> 2020 04 04 10 13 25.0000000  0  9      -0.000000000000
G01  22084826.495 8 116056522.877 8      2272.051          48.000
G08  23796312.550 8 125050432.522 8     -2342.563          48.000
G10  22475480.568 8 118109421.912 8     -2047.988          48.000
G11  21127465.177 8 111025558.850 8      -272.291          48.000
G14  20515750.916 8 107810982.897 8      -441.421          48.000
G22  23091026.868 8 121344137.780 8      2212.256          48.000
G27  25007646.322 8 131416025.523 8     -2786.018          48.000
G31  21991275.271 8 115564907.089 8      3308.448          48.000
G32  20892441.316 8 109790502.339 8     -1879.740          48.000
> 2020 04 04 10 13 26.0000000  0  9      -0.000000000000
G01  22084394.171 8 116054251.002 8      2271.687          48.000
G08  23796758.338 8 125052775.149 8     -2342.698          48.000
G10  22475870.298 8 118111469.954 8     -2048.122          48.000
G11  21127517.051 8 111025831.446 8      -272.886          48.000
G14  20515834.963 8 107811424.567 8      -441.950          48.000
G22  23090605.896 8 121341925.561 8      2212.142          48.000
G27  25008176.474 8 131418811.484 8     -2785.887          48.000
G31  21990645.736 8 115561598.867 8      3307.985          48.000
G32  20892799.053 8 109792382.258 8     -1880.130          48.000
> 2020 04 04 10 13 27.0000000  0  9      -0.000000000000
G01  22083961.916 8 116051979.492 8      2271.322          48.000
G08  23797204.151 8 125055117.911 8     -2342.832          48.000
G10  22476260.054 8 118113518.130 8     -2048.256          48.000
G11  21127569.037 8 111026104.637 8      -273.480          48.000
G14  20515919.110 8 107811866.765 8      -442.479          48.000
G22  23090184.946 8 121339713.455 8      2212.028          48.000
G27  25008706.601 8 131421597.315 8     -2785.757          48.000
G31  21990016.290 8 115558291.107 8      3307.522          48.000
G32  20893156.864 8 109794262.566 8     -1880.520          48.000
